stop_id,stop_code,stop_name,stop_desc,stop_lat,stop_lon,location_type,parent_station,wheelchair_boarding,platform_code,zone_id,level_id
de:12065:900200008:1:50,,S Birkenwerder Bhf,Bahnsteig Gleis 4,52.688665000000,13.288775000000,0,de:12065:900200008,0,4,5154 S Birkenwerder Bhf,2
de:12065:900200008:1:51,,S Birkenwerder Bhf,Bahnsteig Gleis 6,52.688658000000,13.288626000000,0,de:12065:900200008,1,6,5154 S Birkenwerder Bhf,2
de:11000:900072102::1,,Gutspark Marienfelde (Berlin),Bushalt Nahmitzer Damm ht. Motzener Straße,52.409227000000,13.376924000000,0,,0,,5656 Gutspark Marienfelde (Berlin),4
de:11000:900001201:1:50,,S+U Westhafen (Berlin),Bahnsteig S-Bahn Gleis 1,52.536218000000,13.344329000000,0,de:11000:900001201,0,1,5555 S+U Westhafen (Berlin),88
de:11000:900001201:1:51,,S+U Westhafen (Berlin),Bahnsteig S-Bahn Gleis 2,52.536318000000,13.344298000000,0,de:11000:900001201,0,2,5555 S+U Westhafen (Berlin),88
de:11000:900003102:1:50,,S Bellevue (Berlin),S-Bahnsteig Gleis 3,52.519946000000,13.348090000000,0,de:11000:900003102,0,,5555 S Bellevue (Berlin),5
de:11000:900003102:1:51,,S Bellevue (Berlin),S-Bahnsteig Gleis 4,52.520012000000,13.348101000000,0,de:11000:900003102,0,,5555 S Bellevue (Berlin),5
de:11000:900003103:1:50,,S Tiergarten (Berlin),Bahnsteig Gleis 3,52.514419000000,13.336536000000,0,de:11000:900003103,0,,5555 S Tiergarten (Berlin),5
de:11000:900003103:1:51,,S Tiergarten (Berlin),Bahnsteig Gleis 4,52.514440000000,13.336420000000,0,de:11000:900003103,0,,5555 S Tiergarten (Berlin),5
de:11000:900003201:3:54,,S+U Berlin Hauptbahnhof,S-Bahnsteig Gleis 15,52.525147000000,13.369354000000,0,de:11000:900003201,0,15,5555 S+U Berlin Hauptbahnhof,1
de:11000:900003201:3:55,,S+U Berlin Hauptbahnhof,S-Bahnsteig Gleis 16,52.525261000000,13.369313000000,0,de:11000:900003201,0,16,5555 S+U Berlin Hauptbahnhof,1
de:11000:900007102:1:50,,S+U Gesundbrunnen Bhf (Berlin),S-Bahnsteig Gleis 1,52.549316000000,13.389883000000,0,de:11000:900007102,0,,5555 S+U Gesundbrunnen Bhf (Berlin),3
de:11000:900007102:1:51,,S+U Gesundbrunnen Bhf (Berlin),S-Bahnsteig Gleis 2,52.549212000000,13.389895000000,0,de:11000:900007102,0,,5555 S+U Gesundbrunnen Bhf (Berlin),3
de:11000:900007102:2:52,,S+U Gesundbrunnen Bhf (Berlin),S-Bahnsteig Gleis 3,52.549131000000,13.389907000000,0,de:11000:900007102,0,,5555 S+U Gesundbrunnen Bhf (Berlin),3
de:11000:900007102:2:53,,S+U Gesundbrunnen Bhf (Berlin),S-Bahnsteig Gleis 4,52.549033000000,13.389919000000,0,de:11000:900007102,0,,5555 S+U Gesundbrunnen Bhf (Berlin),3
de:11000:900020201:2:52,,S+U Jungfernheide Bhf (Berlin),S-Bahnsteig Gleis 5,52.530363000000,13.299325000000,0,de:11000:900020201,0,5,5555 S+U Jungfernheide Bhf (Berlin),33
de:11000:900020201:2:53,,S+U Jungfernheide Bhf (Berlin),S-Bahnsteig Gleis 6,52.530446000000,13.299292000000,0,de:11000:900020201,0,6,5555 S+U Jungfernheide Bhf (Berlin),33
de:11000:900020202:1:50,,S Beusselstr. (Berlin),S-Bahnsteig Gleis 1,52.534359000000,13.329406000000,0,de:11000:900020202,0,1,5555 S Beusselstr. (Berlin),2
de:11000:900020202:1:51,,S Beusselstr. (Berlin),S-Bahnsteig Gleis 2,52.534452000000,13.329361000000,0,de:11000:900020202,0,2,5555 S Beusselstr. (Berlin),2
de:12054:900230999:3:54,,S Potsdam Hauptbahnhof,S-Bahnsteig Gleis 6,52.391764000000,13.066755000000,0,de:12054:900230999,1,6,5750 S Potsdam Hauptbahnhof,156
de:12054:900230999:3:55,,S Potsdam Hauptbahnhof,S-Bahnsteig Gleis 7,52.391851000000,13.066763000000,0,de:12054:900230999,0,7,5750 S Potsdam Hauptbahnhof,156
de:11000:900023201:3:54,,S+U Zoologischer Garten Bhf (Berlin),S-Bahnsteig Gleis 5,52.507031000000,13.331849000000,0,de:11000:900023201,0,5,5555 S+U Zoologischer Garten Bhf (Berlin),8
de:11000:900023201:3:55,,S+U Zoologischer Garten Bhf (Berlin),S-Bahnsteig Gleis 6,52.507068000000,13.331736000000,0,de:11000:900023201,0,6,5555 S+U Zoologischer Garten Bhf (Berlin),8
de:11000:900024101:3:54,,S Charlottenburg Bhf (Berlin),S-Bahnsteig Gleis 5,52.504929000000,13.304487000000,0,de:11000:900024101,0,5,5555 S Charlottenburg Bhf (Berlin),119
de:11000:900024101:3:55,,S Charlottenburg Bhf (Berlin),S-Bahnsteig Gleis 6,52.504988000000,13.304449000000,0,de:11000:900024101,0,6,5555 S Charlottenburg Bhf (Berlin),119
de:11000:900024101:4:56,,S Charlottenburg Bhf (Berlin),S-Bahnsteig Gleis 7,52.505070000000,13.304390000000,0,de:11000:900024101,0,7,5555 S Charlottenburg Bhf (Berlin),119
de:11000:900024101:4:57,,S Charlottenburg Bhf (Berlin),S-Bahnsteig Gleis 8,52.505135000000,13.304349000000,0,de:11000:900024101,0,8,5555 S Charlottenburg Bhf (Berlin),119
de:11000:900024102:1:50,,S Westkreuz (Berlin),S-Bahnsteig Gleis 1,52.501095000000,13.284364000000,0,de:11000:900024102,0,1,5555 S Westkreuz (Berlin),22
de:11000:900024102:1:51,,S Westkreuz (Berlin),S-Bahnsteig Gleis 2,52.501013000000,13.284448000000,0,de:11000:900024102,0,2,5555 S Westkreuz (Berlin),22
de:11000:900024102:2:52,,S Westkreuz (Berlin),S-Bahnsteig Gleis 3,52.500888000000,13.284590000000,0,de:11000:900024102,0,3,5555 S Westkreuz (Berlin),22
de:11000:900024102:2:53,,S Westkreuz (Berlin),S-Bahnsteig Gleis 4,52.500813000000,13.284665000000,0,de:11000:900024102,0,4,5555 S Westkreuz (Berlin),22
de:11000:900024106:1:50,,S Messe Nord/ICC (Berlin),S-Bahnsteig Gleis 1,52.507703000000,13.283556000000,0,de:11000:900024106,0,1,5555 S Messe Nord/ICC (Berlin),128
de:11000:900024106:1:51,,S Messe Nord/ICC (Berlin),S-Bahnsteig Gleis 2,52.507739000000,13.283409000000,0,de:11000:900024106,0,2,5555 S Messe Nord/ICC (Berlin),128
de:11000:900024203:1:51,,S Savignyplatz (Berlin),S-Bahnsteig Gleis 3,52.505117000000,13.319066000000,0,de:11000:900024203,0,,5555 S Savignyplatz (Berlin),5
de:11000:900025321:1:51,,S Olympiastadion (Berlin),S-Bahnsteig Gleis 2,52.511293000000,13.242806000000,0,de:11000:900025321,0,,5656 S Olympiastadion (Berlin),2
de:11000:900025321:1:50,,S Olympiastadion (Berlin),S-Bahnsteig Gleis 1,52.511216000000,13.242843000000,0,de:11000:900025321,0,1,5656 S Olympiastadion (Berlin),2
de:11000:900025423:1:50,,S Messe Süd (Berlin),Bahnsteig Gleis 1,52.498568000000,13.270392000000,0,de:11000:900025423,0,,5656 S Messe Süd (Berlin),3
de:11000:900025424:1:51,,S Pichelsberg (Berlin),S-Bahnsteig Gleis 1,52.510181000000,13.227421000000,0,de:11000:900025424,0,,5656 S Pichelsberg (Berlin),3
de:11000:900025424:1:50,,S Pichelsberg (Berlin),S-Bahnsteig Gleis 2,52.510241000000,13.227488000000,0,de:11000:900025424,0,,5656 S Pichelsberg (Berlin),3
de:11000:900026105:1:50,,S Heerstr. (Berlin),S-Bahnsteig Gleis 1,52.507814000000,13.259813000000,0,de:11000:900026105,0,,5656 S Heerstr. (Berlin),3
de:11000:900026207:1:50,,S Westend (Berlin),S-Bahnsteig Gleis 1,52.517888000000,13.284378000000,0,de:11000:900026207,0,1,5555 S Westend (Berlin),2
de:11000:900026207:1:51,,S Westend (Berlin),S-Bahnsteig Gleis 2,52.517906000000,13.284555000000,0,de:11000:900026207,0,2,5555 S Westend (Berlin),2
de:11000:900029101:1:50,,S Spandau Bhf (Berlin),S-Bahnsteig Gleis 1,52.534774000000,13.197557000000,0,de:11000:900029101,0,,5656 S Spandau Bhf (Berlin),5
de:11000:900029101:1:51,,S Spandau Bhf (Berlin),S-Bahnsteig Gleis 2,52.534720000000,13.197532000000,0,de:11000:900029101,0,,5656 S Spandau Bhf (Berlin),5
de:11000:900040101:1:50,,S Halensee (Berlin),S-Bahnsteig Gleis 1,52.496038000000,13.290596000000,0,de:11000:900040101,0,,5555 S Halensee (Berlin),2
de:11000:900044101:1:50,,S Hohenzollerndamm (Berlin),S-Bahnsteig Gleis 1,52.488671000000,13.300271000000,0,de:11000:900044101,0,,5555 S Hohenzollerndamm (Berlin),2
de:11000:900044202:1:50,,S+U Bundesplatz (Berlin),S-Bahn Bahnsteig Gleis 1,52.477687000000,13.329539000000,0,de:11000:900044202,0,1,5555 S+U Bundesplatz (Berlin),33
de:11000:900044202:1:51,,S+U Bundesplatz (Berlin),S-Bahn Bahnsteig Gleis 2,52.477611000000,13.329544000000,0,de:11000:900044202,0,2,5555 S+U Bundesplatz (Berlin),33
de:11000:900045102:1:50,,S+U Heidelberger Platz (Berlin),Bahnsteig Gleis 1,52.480059000000,13.311856000000,0,de:11000:900045102,0,1,5555 S+U Heidelberger Platz (Berlin),80
de:11000:900045102:1:51,,S+U Heidelberger Platz (Berlin),Bahnsteig Gleis 2,52.480026000000,13.311782000000,0,de:11000:900045102,0,2,5555 S+U Heidelberger Platz (Berlin),80
de:11000:900048101:1:50,,S Grunewald (Berlin),S-Bahnsteig Gleis 1,52.488370000000,13.260926000000,0,de:11000:900048101,0,1,5656 S Grunewald (Berlin),33
de:11000:900048101:1:51,,S Grunewald (Berlin),S-Bahnsteig Gleis 2,52.488309000000,13.261033000000,0,de:11000:900048101,0,2,5656 S Grunewald (Berlin),33
de:11000:900048101:2:52,,S Grunewald (Berlin),S-Bahnsteig Gleis 3,52.488258000000,13.261105000000,0,de:11000:900048101,0,3,5656 S Grunewald (Berlin),33
de:11000:900048101:2:53,,S Grunewald (Berlin),S-Bahnsteig Gleis 4,52.488179000000,13.261234000000,0,de:11000:900048101,0,4,5656 S Grunewald (Berlin),33
de:11000:900053301:1:50,,S Wannsee Bhf (Berlin),S-Bahnsteig Gleis 1,52.421667000000,13.179986000000,0,de:11000:900053301,0,1,5656 S Wannsee Bhf (Berlin),9
de:11000:900053301:1:51,,S Wannsee Bhf (Berlin),S-Bahnsteig Gleis 2,52.421604000000,13.180082000000,0,de:11000:900053301,0,2,5656 S Wannsee Bhf (Berlin),9
de:11000:900053301:2:52,,S Wannsee Bhf (Berlin),S-Bahnsteig Gleis 3,52.421546000000,13.180177000000,0,de:11000:900053301,0,3,5656 S Wannsee Bhf (Berlin),9
de:11000:900053301:2:53,,S Wannsee Bhf (Berlin),S-Bahnsteig Gleis 4,52.421479000000,13.180296000000,0,de:11000:900053301,0,4,5656 S Wannsee Bhf (Berlin),9
de:11000:900054105:1:50,,S+U Innsbrucker Platz (Berlin),S-Bahnsteig Gleis 1,52.478176000000,13.341468000000,0,de:11000:900054105,0,1,5555 S+U Innsbrucker Platz (Berlin),78
de:11000:900054105:1:51,,S+U Innsbrucker Platz (Berlin),S-Bahnsteig Gleis 2,52.478047000000,13.341463000000,0,de:11000:900054105,0,2,5555 S+U Innsbrucker Platz (Berlin),78
de:11000:900058102:1:50,,S Priesterweg (Berlin),S-Bahnsteig Gleis 1,52.459921000000,13.356187000000,0,de:11000:900058102,0,,5656 S Priesterweg (Berlin),114
de:11000:900058102:2:51,,S Priesterweg (Berlin),S-Bahnsteig Gleis 2,52.459905000000,13.356324000000,0,de:11000:900058102,0,,5656 S Priesterweg (Berlin),114
de:11000:900058102:1:52,,S Priesterweg (Berlin),S-Bahnsteig Gleis 3,52.459934000000,13.356075000000,0,de:11000:900058102,0,,5656 S Priesterweg (Berlin),114
de:11000:900058102:2:53,,S Priesterweg (Berlin),S-Bahnsteig Gleis 4,52.459892000000,13.356434000000,0,de:11000:900058102,0,,5656 S Priesterweg (Berlin),114
de:11000:900063452:1:50,,S Südende (Berlin),S-Bahnsteig Gleis 1,52.448211000000,13.353647000000,0,de:11000:900063452,0,1,5656 S Südende (Berlin),105
de:11000:900063452:1:51,,S Südende (Berlin),S-Bahnsteig Gleis 2,52.448180000000,13.353755000000,0,de:11000:900063452,0,2,5656 S Südende (Berlin),105
de:11000:900064201:1:50,,S Lichterfelde Süd (Berlin),S-Bahnsteig Gleis 1,52.410250000000,13.308587000000,0,de:11000:900064201,0,1,5656 S Lichterfelde Süd (Berlin),106
de:11000:900064201:1:51,,S Lichterfelde Süd (Berlin),S-Bahnsteig Gleis 2,52.410219000000,13.308767000000,0,de:11000:900064201,0,2,5656 S Lichterfelde Süd (Berlin),106
de:11000:900064256:1:50,,S Osdorfer Str. (Berlin),S-Bahnsteig Gleis 1,52.418911000000,13.314214000000,0,de:11000:900064256,0,1,5656 S Osdorfer Str. (Berlin),33
de:11000:900064256:1:51,,S Osdorfer Str. (Berlin),S-Bahnsteig Gleis 2,52.418882000000,13.314304000000,0,de:11000:900064256,0,2,5656 S Osdorfer Str. (Berlin),33
de:11000:900064301:3:52,,S Lichterfelde Ost Bhf (Berlin),S-Bahnsteig Gleis 1,52.430002000000,13.328130000000,0,de:11000:900064301,0,1,5656 S Lichterfelde Ost Bhf (Berlin),33
de:11000:900064301:3:53,,S Lichterfelde Ost Bhf (Berlin),S-Bahnsteig Gleis 2,52.429919000000,13.328299000000,0,de:11000:900064301,0,2,5656 S Lichterfelde Ost Bhf (Berlin),33
de:11000:900067221:1:50,,S Lankwitz (Berlin),S-Bahnsteig Gleis 2,52.438757000000,13.342041000000,0,de:11000:900067221,0,2,5656 S Lankwitz (Berlin),33
de:11000:900068201:1:50,,S+U Tempelhof (Berlin),Bahnsteig Gleis 1,52.471027000000,13.384476000000,0,de:11000:900068201,0,1,5555 S+U Tempelhof (Berlin),78
de:11000:900068201:1:51,,S+U Tempelhof (Berlin),Bahnsteig Gleis 2,52.470922000000,13.384416000000,0,de:11000:900068201,0,2,5555 S+U Tempelhof (Berlin),78
de:11000:900068301:1:51,,S Attilastr. (Berlin),S-Bahnsteig Gleis 2,52.447931000000,13.360892000000,0,de:11000:900068301,0,2,5656 S Attilastr. (Berlin),33
de:11000:900072101:1:50,,S Buckower Chaussee (Berlin),S-Bahnsteig Gleis 1,52.410239000000,13.382877000000,0,de:11000:900072101,0,1,5656 S Buckower Chaussee (Berlin),33
de:11000:900072101:2:51,,S Buckower Chaussee (Berlin),S-Bahnsteig Gleis 2,52.410252000000,13.382984000000,0,de:11000:900072101,0,2,5656 S Buckower Chaussee (Berlin),33
de:11000:900073101:1:50,,S Marienfelde (Berlin),S-Bahnsteig Gleis 1,52.424278000000,13.374587000000,0,de:11000:900073101,0,1,5656 S Marienfelde (Berlin),33
de:11000:900073101:1:51,,S Marienfelde (Berlin),S-Bahnsteig Gleis 2,52.424296000000,13.374679000000,0,de:11000:900073101,0,2,5656 S Marienfelde (Berlin),33
de:11000:900074201:1:50,,S Lichtenrade (Berlin),S-Bahnsteig Gleis 1,52.386979000000,13.396585000000,0,de:11000:900074201,0,1,5656 S Lichtenrade (Berlin),4
de:11000:900074202:1:50,,S Schichauweg (Berlin),Bahnsteig Gleis 1,52.399129000000,13.388959000000,0,de:11000:900074202,0,1,5656 S Schichauweg (Berlin),33
de:11000:900074202:2:51,,S Schichauweg (Berlin),Bahnsteig Gleis 2,52.399155000000,13.389089000000,0,de:11000:900074202,0,2,5656 S Schichauweg (Berlin),33
de:11000:900077106:1:50,,S Sonnenallee (Berlin),Bahnsteig Gleis 1,52.472990000000,13.455632000000,0,de:11000:900077106,0,,5555 S Sonnenallee (Berlin),1
de:11000:900077106:1:51,,S Sonnenallee (Berlin),Bahnsteig Gleis 2,52.472954000000,13.455771000000,0,de:11000:900077106,0,,5555 S Sonnenallee (Berlin),1
de:11000:900077155:1:50,,S Köllnische Heide (Berlin),S-Bahnsteig Gleis 1,52.469676000000,13.468060000000,0,de:11000:900077155,0,,5656 S Köllnische Heide (Berlin),119
de:11000:900077155:1:51,,S Köllnische Heide (Berlin),S-Bahnsteig Gleis 2,52.469600000000,13.468084000000,0,de:11000:900077155,0,,5656 S Köllnische Heide (Berlin),119
de:11000:900078201:1:50,,S+U Neukölln (Berlin),S-Bahnsteig Gleis 1,52.469492000000,13.443156000000,0,de:11000:900078201,0,,5555 S+U Neukölln (Berlin),38
de:11000:900078201:1:51,,S+U Neukölln (Berlin),S-Bahnsteig Gleis 2,52.469373000000,13.443216000000,0,de:11000:900078201,0,,5555 S+U Neukölln (Berlin),38
de:11000:900079221:1:50,,S+U Hermannstr. (Berlin),Bahnsteig Gleis 1,52.467690000000,13.431204000000,0,de:11000:900079221,0,1,5555 S+U Hermannstr. (Berlin),82
de:11000:900079221:1:51,,S+U Hermannstr. (Berlin),Bahnsteig Gleis 2,52.467578000000,13.431255000000,0,de:11000:900079221,0,2,5555 S+U Hermannstr. (Berlin),82
de:11000:900085105:1:50,,S Alt-Reinickendorf (Berlin),S-Bahnsteig Gleis 1,52.577776000000,13.351235000000,0,de:11000:900085105,0,1,5656 S Alt-Reinickendorf (Berlin),114
de:11000:900085201:1:50,,S Schönholz (Berlin),"Bahnsteig Gleis 3, S-Bahn",52.571473000000,13.381121000000,0,de:11000:900085201,0,,5656 S Schönholz (Berlin),5
de:11000:900085201:1:51,,S Schönholz (Berlin),"Bahnsteig Gleis 4, S-Bahn",52.571407000000,13.381026000000,0,de:11000:900085201,0,,5656 S Schönholz (Berlin),5
de:11000:900089303:1:50,,S Tegel (Berlin),S-Bahnsteig Gleis 1,52.588123000000,13.289879000000,0,de:11000:900089303,0,,5656 S Tegel (Berlin),106
de:11000:900089303:1:51,,S Tegel (Berlin),S-Bahnsteig Gleis 2,52.588072000000,13.289675000000,0,de:11000:900089303,0,,5656 S Tegel (Berlin),106
de:11000:900091203:1:50,,S Heiligensee (Berlin),S-Bahnsteig Gleis 1,52.624476000000,13.229361000000,0,de:11000:900091203,0,1,5656 S Heiligensee (Berlin),33
de:11000:900091203:1:51,,S Heiligensee (Berlin),S-Bahnsteig Gleis 2,52.624530000000,13.229471000000,0,de:11000:900091203,0,2,5656 S Heiligensee (Berlin),33
de:11000:900091205:1:50,,S Schulzendorf (Berlin),S-Bahnsteig Gleis 1,52.612931000000,13.246032000000,0,de:11000:900091205,0,1,5656 S Schulzendorf (Berlin),33
de:11000:900096405:1:50,,S Eichborndamm (Berlin),S-Bahnsteig Gleis 2,52.577688000000,13.317219000000,0,de:11000:900096405,0,,5656 S Eichborndamm (Berlin),5
de:11000:900096458:1:50,,S+U Karl-Bonhoeffer-Nervenklinik (Berlin),S-Bahnsteig Gleis 2,52.578017000000,13.328994000000,0,de:11000:900096458,0,2,5656 S+U Karl-Bonhoeffer-Nervenklinik (Berlin),5
de:11000:900100001:3:54,,S+U Friedrichstr. Bhf (Berlin),S-Bahnsteig Gleis 5,52.520364000000,13.387160000000,0,de:11000:900100001,0,,5555 S+U Friedrichstr. Bhf (Berlin),23
de:11000:900100001:3:55,,S+U Friedrichstr. Bhf (Berlin),S-Bahnsteig Gleis 6,52.520458000000,13.387211000000,0,de:11000:900100001,0,,5555 S+U Friedrichstr. Bhf (Berlin),23
de:11000:900100002:1:50,,S Hackescher Markt (Berlin),S-Bahnsteig Gleis 3,52.522663000000,13.402462000000,0,de:11000:900100002,0,,5555 S Hackescher Markt (Berlin),5
de:11000:900100002:1:51,,S Hackescher Markt (Berlin),S-Bahnsteig Gleis 4,52.522726000000,13.402430000000,0,de:11000:900100002,0,,5555 S Hackescher Markt (Berlin),5
de:11000:900100003:2:52,,S+U Alexanderplatz Bhf (Berlin),S-Bahnsteig Gleis 3,52.521520000000,13.411226000000,0,de:11000:900100003,0,,5555 S+U Alexanderplatz Bhf (Berlin),15
de:11000:900100003:2:53,,S+U Alexanderplatz Bhf (Berlin),S-Bahnsteig Gleis 4,52.521589000000,13.411357000000,0,de:11000:900100003,0,,5555 S+U Alexanderplatz Bhf (Berlin),15
de:11000:900100004:1:50,,S+U Jannowitzbrücke (Berlin),S-Bahnsteig Gleis 3,52.514193000000,13.419471000000,0,de:11000:900100004,0,,5555 S+U Jannowitzbrücke (Berlin),92
de:11000:900100004:1:51,,S+U Jannowitzbrücke (Berlin),S-Bahnsteig Gleis 4,52.514250000000,13.419526000000,0,de:11000:900100004,0,,5555 S+U Jannowitzbrücke (Berlin),92
de:11000:900110001:1:50,,S+U Schönhauser Allee (Berlin),Bahnsteig S-Bahn Gleis 1,52.549274000000,13.415186000000,0,de:11000:900110001,0,1,5555 S+U Schönhauser Allee (Berlin),3
de:11000:900110001:1:51,,S+U Schönhauser Allee (Berlin),Bahnsteig S-Bahn Gleis 2,52.549382000000,13.415241000000,0,de:11000:900110001,0,2,5555 S+U Schönhauser Allee (Berlin),3
de:11000:900110002:1:50,,S Prenzlauer Allee (Berlin),S-Bahnsteig Gleis 1,52.544757000000,13.425865000000,0,de:11000:900110002,0,1,5555 S Prenzlauer Allee (Berlin),124
de:11000:900110002:1:51,,S Prenzlauer Allee (Berlin),S-Bahnsteig Gleis 2,52.544860000000,13.425975000000,0,de:11000:900110002,0,2,5555 S Prenzlauer Allee (Berlin),124
de:11000:900110011:1:50,,S Bornholmer Str. (Berlin),S-Bahnsteig Gleis 1,52.554619000000,13.397673000000,0,de:11000:900110011,0,,5656 S Bornholmer Str. (Berlin),105
de:11000:900110011:1:51,,S Bornholmer Str. (Berlin),S-Bahnsteig Gleis 2,52.554628000000,13.397809000000,0,de:11000:900110011,0,,5656 S Bornholmer Str. (Berlin),105
de:11000:900110011:2:52,,S Bornholmer Str. (Berlin),S-Bahnsteig Gleis 3,52.554630000000,13.397940000000,0,de:11000:900110011,0,,5656 S Bornholmer Str. (Berlin),105
de:11000:900110011:2:53,,S Bornholmer Str. (Berlin),S-Bahnsteig Gleis 4,52.554635000000,13.398080000000,0,de:11000:900110011,0,,5656 S Bornholmer Str. (Berlin),105
de:11000:900120003:3:55,,S Ostkreuz Bhf (Berlin),S-Bahnsteig Gleis 6,52.503509000000,13.468841000000,0,de:11000:900120003,0,6,5555 S Ostkreuz Bhf (Berlin),4
de:11000:900120005:4:55,,S Ostbahnhof (Berlin),S-Bahnsteig Gleis 8,52.510515000000,13.435336000000,0,de:11000:900120005,0,8,5555 S Ostbahnhof (Berlin),114
de:11000:900120005:4:56,,S Ostbahnhof (Berlin),S-Bahnsteig Gleis 9,52.510594000000,13.435426000000,0,de:11000:900120005,0,9,5555 S Ostbahnhof (Berlin),114
de:11000:900120005:5:57,,S Ostbahnhof (Berlin),S-Bahnsteig Gleis 10,52.510646000000,13.435474000000,0,de:11000:900120005,0,10,5555 S Ostbahnhof (Berlin),114
de:11000:900120005:5:58,,S Ostbahnhof (Berlin),S-Bahnsteig Gleis 11,52.510717000000,13.435552000000,0,de:11000:900120005,0,11,5555 S Ostbahnhof (Berlin),114
de:11000:900130001:1:50,,S Pankow-Heinersdorf (Berlin),Bahnsteig Gleis 1,52.578081000000,13.429448000000,0,de:11000:900130001,0,1,5656 S Pankow-Heinersdorf (Berlin),147
de:11000:900130001:1:51,,S Pankow-Heinersdorf (Berlin),Bahnsteig Gleis 2,52.578039000000,13.429576000000,0,de:11000:900130001,0,2,5656 S Pankow-Heinersdorf (Berlin),147
de:11000:900130002:1:50,,S+U Pankow (Berlin),S-Bahnsteig Gleis 1,52.566222000000,13.410354000000,0,de:11000:900130002,0,,5656 S+U Pankow (Berlin),86
de:11000:900130002:1:51,,S+U Pankow (Berlin),S-Bahnsteig Gleis 2,52.566292000000,13.410260000000,0,de:11000:900130002,0,,5656 S+U Pankow (Berlin),86
de:11000:900130003:1:50,,S Wollankstr. (Berlin),Bahnsteig Gleis 3,52.565329000000,13.392139000000,0,de:11000:900130003,0,3,5656 S Wollankstr. (Berlin),114
de:11000:900130003:1:51,,S Wollankstr. (Berlin),Bahnsteig Gleis 4,52.565283000000,13.392058000000,0,de:11000:900130003,0,4,5656 S Wollankstr. (Berlin),114
de:11000:900135001:1:50,,S Buch (Berlin),S-Bahnsteig Gleis 1,52.635818000000,13.491694000000,0,de:11000:900135001,0,1,5656 S Buch (Berlin),149
de:11000:900142001:1:50,,S Blankenburg (Berlin),S-Bahnsteig Gleis 1,52.591376000000,13.443308000000,0,de:11000:900142001,0,1,5656 S Blankenburg (Berlin),24
de:11000:900142001:1:51,,S Blankenburg (Berlin),S-Bahnsteig Gleis 4,52.591334000000,13.443411000000,0,de:11000:900142001,0,4,5656 S Blankenburg (Berlin),24
de:11000:900143001:1:51,,S Karow Bhf (Berlin),Bahnsteig Gleis 2,52.615235000000,13.469409000000,0,de:11000:900143001,0,2,5656 S Karow Bhf (Berlin),114
de:11000:900151001:1:50,,S Wartenberg (Berlin),S-Bahnsteig Gleis 1,52.573076000000,13.503790000000,0,de:11000:900151001,0,,5656 S Wartenberg (Berlin),111
de:11000:900151001:1:51,,S Wartenberg (Berlin),S-Bahnsteig Gleis 2,52.573023000000,13.503676000000,0,de:11000:900151001,0,,5656 S Wartenberg (Berlin),111
de:11000:900152001:1:50,,S Hohenschönhausen Bhf (Berlin),S-Bahnsteig Gleis 1,52.566268000000,13.512604000000,0,de:11000:900152001,0,1,5656 S Hohenschönhausen Bhf (Berlin),22
de:11000:900152001:1:51,,S Hohenschönhausen Bhf (Berlin),S-Bahnsteig Gleis 2,52.566220000000,13.512489000000,0,de:11000:900152001,0,2,5656 S Hohenschönhausen Bhf (Berlin),22
de:11000:900152002:1:50,,S Gehrenseestr. (Berlin),S-Bahnsteig Gleis 1,52.556471000000,13.524843000000,0,de:11000:900152002,0,,5656 S Gehrenseestr. (Berlin),3
de:11000:900152002:1:51,,S Gehrenseestr. (Berlin),S-Bahnsteig Gleis 2,52.556425000000,13.524692000000,0,de:11000:900152002,0,,5656 S Gehrenseestr. (Berlin),3
de:11000:900160001:1:50,,S Rummelsburg (Berlin),S-Bahnsteig Gleis 1,52.501235000000,13.478701000000,0,de:11000:900160001,0,1,5656 S Rummelsburg (Berlin),5
de:11000:900160001:1:51,,S Rummelsburg (Berlin),S-Bahnsteig Gleis 2,52.501169000000,13.478667000000,0,de:11000:900160001,0,2,5656 S Rummelsburg (Berlin),5
de:11000:900160002:1:50,,S Betriebsbahnhof Rummelsburg (Berlin),S-Bahnsteig Gleis 1,52.493969000000,13.497724000000,0,de:11000:900160002,0,1,5656 S Betriebsbahnhof Rummelsburg (Berlin),50
de:11000:900160003:1:50,,S Nöldnerplatz (Berlin),Bahnsteig Gleis 1,52.503801000000,13.485385000000,0,de:11000:900160003,0,1,5656 S Nöldnerplatz (Berlin),5
de:11000:900160003:1:51,,S Nöldnerplatz (Berlin),Bahnsteig Gleis 2,52.503881000000,13.485281000000,0,de:11000:900160003,0,2,5656 S Nöldnerplatz (Berlin),5
de:11000:900160004:1:50,,S+U Lichtenberg Bhf (Berlin),S-Bahnsteig Gleis 1,52.510220000000,13.497972000000,0,de:11000:900160004,0,1,5656 S+U Lichtenberg Bhf (Berlin),101
de:11000:900160004:1:51,,S+U Lichtenberg Bhf (Berlin),S-Bahnsteig Gleis 2,52.510303000000,13.497825000000,0,de:11000:900160004,0,2,5656 S+U Lichtenberg Bhf (Berlin),101
de:11000:900162001:1:50,,S Karlshorst (Berlin),S-Bahnsteig Gleis 4,52.480538000000,13.527019000000,0,de:11000:900162001,0,,5656 S Karlshorst (Berlin),33
de:11000:900162001:1:51,,S Karlshorst (Berlin),S-Bahnsteig Gleis 3,52.480602000000,13.527100000000,0,de:11000:900162001,0,,5656 S Karlshorst (Berlin),33
de:11000:900170001:1:50,,S Marzahn (Berlin),S-Bahnsteig Gleis 1,52.543259000000,13.541126000000,0,de:11000:900170001,0,1,5656 S Marzahn (Berlin),106
de:11000:900170001:1:51,,S Marzahn (Berlin),S-Bahnsteig Gleis 2,52.543322000000,13.540944000000,0,de:11000:900170001,0,2,5656 S Marzahn (Berlin),106
de:11000:900170002:1:50,,S Raoul-Wallenberg-Str. (Berlin),S-Bahnsteig Gleis 1,52.550735000000,13.547678000000,0,de:11000:900170002,0,1,5656 S Raoul-Wallenberg-Str. (Berlin),106
de:11000:900170002:1:51,,S Raoul-Wallenberg-Str. (Berlin),S-Bahnsteig Gleis 2,52.550783000000,13.547532000000,0,de:11000:900170002,0,2,5656 S Raoul-Wallenberg-Str. (Berlin),106
de:11000:900170003:1:50,,S Mehrower Allee (Berlin),S-Bahnsteig Gleis 1,52.557752000000,13.553721000000,0,de:11000:900170003,0,1,5656 S Mehrower Allee (Berlin),111
de:11000:900170003:1:51,,S Mehrower Allee (Berlin),S-Bahnsteig Gleis 2,52.557792000000,13.553592000000,0,de:11000:900170003,0,2,5656 S Mehrower Allee (Berlin),111
de:11000:900170004:2:52,,S Ahrensfelde Bhf (Berlin),S-Bahnsteig Gleis 41,52.571320000000,13.565711000000,0,de:11000:900170004,0,41,5656 S Ahrensfelde Bhf (Berlin),50
de:11000:900170004:1:50,,S Ahrensfelde Bhf (Berlin),S-Bahnsteig Gleis 42,52.571349000000,13.565592000000,0,de:11000:900170004,0,42,5656 S Ahrensfelde Bhf (Berlin),50
de:11000:900170005:1:50,,S Poelchaustr. (Berlin),S-Bahnsteig Gleis 1,52.535640000000,13.535550000000,0,de:11000:900170005,0,1,5656 S Poelchaustr. (Berlin),33
de:11000:900170005:1:51,,S Poelchaustr. (Berlin),S-Bahnsteig Gleis 2,52.535662000000,13.535393000000,0,de:11000:900170005,0,2,5656 S Poelchaustr. (Berlin),33
de:11000:900171001:1:50,,S Biesdorf (Berlin),S-Bahnsteig Gleis 1,52.513095000000,13.556379000000,0,de:11000:900171001,0,,5656 S Biesdorf (Berlin),5
de:11000:900171001:2:51,,S Biesdorf (Berlin),S-Bahnsteig Gleis 2,52.513066000000,13.555982000000,0,de:11000:900171001,0,,5656 S Biesdorf (Berlin),5
de:11000:900171002:1:50,,S Friedrichsfelde Ost (Berlin),S-Bahnsteig Gleis 1,52.514058000000,13.519948000000,0,de:11000:900171002,0,1,5656 S Friedrichsfelde Ost (Berlin),3
de:11000:900171002:1:51,,S Friedrichsfelde Ost (Berlin),S-Bahnsteig Gleis 2,52.514179000000,13.519948000000,0,de:11000:900171002,0,2,5656 S Friedrichsfelde Ost (Berlin),3
de:11000:900171003:1:50,,S Springpfuhl (Berlin),Bahnsteig Gleis 1,52.527086000000,13.536604000000,0,de:11000:900171003,0,20,5656 S Springpfuhl (Berlin),66
de:11000:900171003:1:51,,S Springpfuhl (Berlin),Bahnsteig Gleis 2,52.527070000000,13.536465000000,0,de:11000:900171003,0,21,5656 S Springpfuhl (Berlin),66
de:11000:900175001:2:51,,S+U Wuhletal (Berlin),S-Bahn Bahnsteig Gleis 12,52.512452000000,13.575181000000,0,de:11000:900175001,0,,5656 S+U Wuhletal (Berlin),25
de:11000:900175002:1:50,,S Kaulsdorf (Berlin),S-Bahnsteig Gleis 1,52.512165000000,13.590481000000,0,de:11000:900175002,0,,5656 S Kaulsdorf (Berlin),152
de:11000:900175002:1:51,,S Kaulsdorf (Berlin),S-Bahnsteig Gleis 2,52.512076000000,13.590479000000,0,de:11000:900175002,0,,5656 S Kaulsdorf (Berlin),152
de:11000:900176001:1:50,,S Mahlsdorf Bhf (Berlin),S-Bahnsteig Gleis 1,52.512253000000,13.610598000000,0,de:11000:900176001,0,1,5656 S Mahlsdorf Bhf (Berlin),5
de:11000:900176001:1:51,,S Mahlsdorf Bhf (Berlin),S-Bahnsteig Gleis 2,52.512137000000,13.610641000000,0,de:11000:900176001,0,2,5656 S Mahlsdorf Bhf (Berlin),5
de:11000:900176001:2:52,,S Mahlsdorf Bhf (Berlin),S-Bahnsteig Gleis 3,52.512091000000,13.610667000000,0,de:11000:900176001,0,3,5656 S Mahlsdorf Bhf (Berlin),5
de:11000:900176001:2:53,,S Mahlsdorf Bhf (Berlin),S-Bahnsteig Gleis 4,52.511972000000,13.610720000000,0,de:11000:900176001,0,4,5656 S Mahlsdorf Bhf (Berlin),5
de:11000:900180001:1:51,,S Köpenick (Berlin),S-Bahnsteig Gleis 2,52.458514000000,13.581459000000,0,de:11000:900180001,0,2,5656 S Köpenick (Berlin),5
de:11000:900180002:1:50,,S Wuhlheide (Berlin),Bahnsteig Gleis 1,52.468668000000,13.554240000000,0,de:11000:900180002,0,1,5656 S Wuhlheide (Berlin),2
de:11000:900180002:1:51,,S Wuhlheide (Berlin),Bahnsteig Gleis 2,52.468594000000,13.554145000000,0,de:11000:900180002,0,2,5656 S Wuhlheide (Berlin),2
de:11000:900180003:1:50,,S Spindlersfeld (Berlin),S-Bahnsteig Gleis 1,52.447135000000,13.561301000000,0,de:11000:900180003,0,1,5656 S Spindlersfeld (Berlin),5
de:11000:900182001:1:50,,S Hirschgarten (Berlin),S-Bahnsteig Gleis 1,52.457950000000,13.603123000000,0,de:11000:900182001,0,1,5656 S Hirschgarten (Berlin),4
de:11000:900182001:1:51,,S Hirschgarten (Berlin),S-Bahnsteig Gleis 2,52.457868000000,13.603123000000,0,de:11000:900182001,0,2,5656 S Hirschgarten (Berlin),4
de:11000:900182002:1:51,,S Friedrichshagen (Berlin),S-Bahnsteig Gleis 3,52.457329000000,13.623213000000,0,de:11000:900182002,0,,5656 S Friedrichshagen (Berlin),5
de:11000:900183001:1:51,,S Rahnsdorf (Berlin),Bahnsteig Gleis 2,52.451598000000,13.689921000000,0,de:11000:900183001,0,2,5656 S Rahnsdorf (Berlin),1
de:11000:900183001:1:50,,S Rahnsdorf (Berlin),Bahnsteig Gleis 1,52.451677000000,13.689947000000,0,de:11000:900183001,0,1,5656 S Rahnsdorf (Berlin),1
de:11000:900183002:1:50,,S Wilhelmshagen (Berlin),Bahnsteig Gleis 1,52.438536000000,13.722166000000,0,de:11000:900183002,0,1,5656 S Wilhelmshagen (Berlin),9
de:11000:900183002:1:51,,S Wilhelmshagen (Berlin),Bahnsteig Gleis 2,52.438589000000,13.722319000000,0,de:11000:900183002,0,2,5656 S Wilhelmshagen (Berlin),9
de:11000:900191001:2:52,,S Baumschulenweg (Berlin),S-Bahnsteig Gleis 3,52.467495000000,13.489615000000,0,de:11000:900191001,0,3,5656 S Baumschulenweg (Berlin),5
de:11000:900191001:1:50,,S Baumschulenweg (Berlin),S-Bahnsteig Gleis 4,52.467637000000,13.489731000000,0,de:11000:900191001,0,4,5656 S Baumschulenweg (Berlin),5
de:11000:900191001:2:51,,S Baumschulenweg (Berlin),S-Bahnsteig Gleis 5,52.467537000000,13.489686000000,0,de:11000:900191001,0,5,5656 S Baumschulenweg (Berlin),5
de:11000:900191002:1:50,,S Plänterwald (Berlin),S-Bahnsteig Gleis 3,52.478467000000,13.473270000000,0,de:11000:900191002,0,3,5656 S Plänterwald (Berlin),5
de:11000:900191002:1:51,,S Plänterwald (Berlin),S-Bahnsteig Gleis 4,52.478530000000,13.473390000000,0,de:11000:900191002,0,4,5656 S Plänterwald (Berlin),5
de:11000:900192001:2:52,,S Schöneweide Bhf (Berlin),S-Bahnsteig Gleis 3,52.454742000000,13.509730000000,0,de:11000:900192001,0,,5656 S Schöneweide Bhf (Berlin),5
de:11000:900192001:2:53,,S Schöneweide Bhf (Berlin),S-Bahnsteig Gleis 4,52.454800000000,13.509830000000,0,de:11000:900192001,0,,5656 S Schöneweide Bhf (Berlin),5
de:11000:900192001:3:54,,S Schöneweide Bhf (Berlin),S-Bahnsteig Gleis 5,52.454850000000,13.509917000000,0,de:11000:900192001,0,,5656 S Schöneweide Bhf (Berlin),5
de:11000:900192001:3:55,,S Schöneweide Bhf (Berlin),S-Bahnsteig Gleis 6,52.454912000000,13.510019000000,0,de:11000:900192001,0,,5656 S Schöneweide Bhf (Berlin),5
de:11000:900192002:1:50,,S Oberspree (Berlin),S-Bahnsteig Gleis 1,52.452447000000,13.538028000000,0,de:11000:900192002,0,1,5656 S Oberspree (Berlin),5
de:11000:900193001:1:50,,S Johannisthal (Berlin),S-Bahnsteig Gleis 3,52.446620000000,13.524071000000,0,de:11000:900193001,0,3,5656 S Johannisthal (Berlin),4
de:11000:900193001:2:51,,S Johannisthal (Berlin),S-Bahnsteig Gleis 4,52.446662000000,13.524141000000,0,de:11000:900193001,0,4,5656 S Johannisthal (Berlin),4
de:11000:900193002:1:50,,S Adlershof (Berlin),S-Bahnsteig Gleis 3,52.434867000000,13.541224000000,0,de:11000:900193002,0,3,5656 S Adlershof (Berlin),1
de:11000:900193002:1:51,,S Adlershof (Berlin),S-Bahnsteig Gleis 4,52.434946000000,13.541382000000,0,de:11000:900193002,0,4,5656 S Adlershof (Berlin),1
de:11000:900030202:1:50,,S Stresow (Berlin),S-Bahnsteig Gleis 1,52.531988000000,13.209206000000,0,de:11000:900030202,0,,5656 S Stresow (Berlin),5
de:12065:900200000:4:54,,S Hennigsdorf Bhf,S-Bahnsteig Gleis 1,52.637484000000,13.206145000000,0,de:12065:900200000,0,,5252 S Hennigsdorf Bhf,5
de:12065:900200000:1:55,,S Hennigsdorf Bhf,S-Bahnsteig Gleis 5,52.637447000000,13.205971000000,0,de:12065:900200000,0,,5252 S Hennigsdorf Bhf,5
de:12065:900200005:3:1,,S Oranienburg Bhf,S-Bahnsteig Gleis 30,52.753981000000,13.248812000000,0,de:12065:900200005,0,30,5053 S Oranienburg Bhf,25
de:12065:900200005:3:2,,S Oranienburg Bhf,S-Bahnsteig Gleis 32,52.754027000000,13.248969000000,0,de:12065:900200005,1,32,5053 S Oranienburg Bhf,25
de:12065:900200006:1:50,,S Lehnitz,S-Bahnsteig Gleis 1,52.741180000000,13.263457000000,0,de:12065:900200006,1,,5053 S Lehnitz,5
de:12065:900200006:1:51,,S Lehnitz,S-Bahnsteig Gleis 2,52.741136000000,13.263325000000,0,de:12065:900200006,0,,5053 S Lehnitz,5
de:12065:900200007:1:50,,S Borgsdorf,S-Bahnsteig Gleis 1,52.715526000000,13.276319000000,0,de:12065:900200007,1,1,5153 S Borgsdorf,5
de:12065:900200007:1:51,,S Borgsdorf,S-Bahnsteig Gleis 2,52.715549000000,13.276467000000,0,de:12065:900200007,0,,5153 S Borgsdorf,5
de:12065:900200009:1:50,,S Hohen Neuendorf,S-Bahnsteig Gleis 3,52.668645000000,13.286992000000,0,de:12065:900200009,0,,5154 S Hohen Neuendorf,128
de:12065:900200009:1:51,,S Hohen Neuendorf,S-Bahnsteig Gleis 4,52.668644000000,13.287110000000,0,de:12065:900200009,1,,5154 S Hohen Neuendorf,128
de:12065:900200011:1:50,,S Bergfelde,S-Bahnsteig Gleis 1,52.670081000000,13.320426000000,0,de:12065:900200011,1,1,5154 S Bergfelde,4
de:12065:900200011:1:51,,S Bergfelde,S-Bahnsteig Gleis 2,52.670130000000,13.320479000000,0,de:12065:900200011,0,2,5154 S Bergfelde,4
de:12065:900200012:1:50,,S Schönfließ,S-Bahnsteig Gleis 6,52.664629000000,13.340528000000,0,de:12065:900200012,0,,5255 S Schönfließ,4
de:12065:900200012:1:51,,S Schönfließ,S-Bahnsteig Gleis 8,52.664544000000,13.340492000000,0,de:12065:900200012,1,,5255 S Schönfließ,4
de:12065:900200013:1:50,,S Mühlenbeck-Mönchmühle,S-Bahnsteig Gleis 6,52.654763000000,13.386172000000,0,de:12065:900200013,1,6,5255 S Mühlenbeck-Mönchmühle,5
de:12054:900230000:1:50,,S Babelsberg,S-Bahnsteig Gleis 1,52.391427000000,13.092776000000,0,de:12054:900230000,1,1,5851 S Babelsberg,1
de:12054:900230000:1:51,,S Babelsberg,S-Bahnsteig Gleis 2,52.391343000000,13.092809000000,0,de:12054:900230000,1,2,5851 S Babelsberg,1
de:12054:900230003:1:50,,S Griebnitzsee Bhf,S-Bahnsteig Gleis 1,52.394529000000,13.127597000000,0,de:12054:900230003,1,,5851 S Griebnitzsee Bhf,106
de:12054:900230003:1:54,,S Griebnitzsee Bhf,S-Bahnsteig Gleis 2,52.394436000000,13.127622000000,0,de:12054:900230003,1,,5851 S Griebnitzsee Bhf,106
de:12072:900245027:2:52,,S Blankenfelde (TF) Bhf,S-Bahnsteig Gleis 3,52.338503000000,13.415406000000,0,de:12072:900245027,1,3,5955 S Blankenfelde (TF) Bhf,33
de:12072:900245028:1:50,,S Mahlow,S-Bahnsteig Gleis 2,52.360777000000,13.407878000000,0,de:12072:900245028,1,,5955 S Mahlow,33
de:12072:900245028:1:51,,S Mahlow,S-Bahnsteig Gleis 1,52.360750000000,13.407713000000,0,de:12072:900245028,1,,5955 S Mahlow,33
de:12061:900260001:2:52,,S Königs Wusterhausen Bhf,Bahnsteig Gleis 2,52.296642000000,13.631479000000,0,de:12061:900260001,1,2,6059 S Königs Wusterhausen Bhf,164
de:12067:900310004:3:52,,S Erkner Bhf,S-Bahnsteig Gleis 31,52.429643000000,13.750917000000,0,de:12067:900310004,0,31,5761 S Erkner Bhf,146
de:12067:900310004:3:53,,S Erkner Bhf,S-Bahnsteig Gleis 32,52.429571000000,13.750774000000,0,de:12067:900310004,0,32,5761 S Erkner Bhf,146
de:12064:900320001:1:50,,S Strausberg Nord,S-Bahnsteig Gleis 2,52.590294000000,13.908476000000,0,de:12064:900320001,1,,5462 S Strausberg Nord,9
de:12064:900320001:1:51,,S Strausberg Nord,S-Bahnsteig Gleis 1,52.590277000000,13.908549000000,0,de:12064:900320001,1,,5462 S Strausberg Nord,9
de:12064:900320002:1:50,,S Strausberg Stadt,S-Bahnsteig Gleis 1,52.576659000000,13.887953000000,0,de:12064:900320002,1,,5462 S Strausberg Stadt,33
de:12064:900320003:1:50,,S Hegermühle,S-Bahnsteig Gleis 1,52.548574000000,13.866540000000,0,de:12064:900320003,1,1,5462 S Hegermühle,114
de:12064:900320004:2:51,,S Strausberg Bhf,S-Bahnsteig Gleis 8 gegenüber S-Bahnsteig Gleis 9,52.532203000000,13.833259000000,0,de:12064:900320004,0,8,5462 S Strausberg Bhf,33
de:12064:900320004:2:52,,S Strausberg Bhf,S-Bahnsteig Gleis 9,52.532305000000,13.833291000000,0,de:12064:900320004,1,,5462 S Strausberg Bhf,33
de:12064:900320005:1:50,,S Petershagen Nord,S-Bahnsteig Gleis 1,52.528881000000,13.789384000000,0,de:12064:900320005,1,1,5561 S Petershagen Nord,33
de:12064:900320006:1:50,,S Fredersdorf,S-Bahnsteig Gleis 1,52.526201000000,13.760479000000,0,de:12064:900320006,1,,5561 S Fredersdorf,9
de:12064:900320006:1:51,,S Fredersdorf,S-Bahnsteig Gleis 2,52.526281000000,13.760457000000,0,de:12064:900320006,1,,5561 S Fredersdorf,9
de:12064:900320007:1:50,,S Neuenhagen (b Berlin),S-Bahnsteig Gleis 1,52.520780000000,13.700395000000,0,de:12064:900320007,1,,5460 S Neuenhagen (b Berlin),50
de:12064:900320008:1:50,,S Hoppegarten,S-Bahnsteig Gleis 1,52.518109000000,13.673978000000,0,de:12064:900320008,1,,5460 S Hoppegarten,4
de:12064:900320008:1:51,,S Hoppegarten,S-Bahnsteig Gleis 2,52.518296000000,13.673932000000,0,de:12064:900320008,1,,5460 S Hoppegarten,4
de:12064:900320026:1:50,,S Birkenstein,S-Bahnsteig Gleis 1,52.515685000000,13.647324000000,0,de:12064:900320026,1,1,5460 S Birkenstein,50
de:12064:900320026:1:51,,S Birkenstein,S-Bahnsteig Gleis 2,52.515593000000,13.647342000000,0,de:12064:900320026,1,2,5460 S Birkenstein,50
de:12060:900350160:1:50,,S Bernau Bhf,S-Bahnsteig Gleis 1,52.675595000000,13.591672000000,0,de:12060:900350160,1,,5158 S Bernau Bhf,25
de:12060:900350160:1:51,,S Bernau Bhf,S-Bahnsteig Gleis 2,52.675500000000,13.591803000000,0,de:12060:900350160,0,,5158 S Bernau Bhf,25
de:12060:900350163:1:50,,S Zepernick,Bahnsteig Gleis 1,52.659860000000,13.534081000000,0,de:12060:900350163,0,1,5257 S Zepernick,1
de:12060:900350163:1:51,,S Zepernick,Bahnsteig Gleis 2,52.659797000000,13.534196000000,0,de:12060:900350163,1,2,5257 S Zepernick,1
de:12060:900350162:1:50,,S Röntgental,Bahnsteig Gleis 1,52.648633000000,13.513405000000,0,de:12060:900350162,1,,5257 S Röntgental,5
de:12060:900350161:1:50,,S Bernau-Friedenstal,S-Bahnsteig Gleis 1,52.668470000000,13.564998000000,0,de:12060:900350161,1,,5158 S Bernau-Friedenstal,50
de:11000:900025321:2:52,,S Olympiastadion (Berlin),S-Bahnsteig Gleis 3,52.511401000000,13.242749000000,0,de:11000:900025321,0,,5656 S Olympiastadion (Berlin),2
de:11000:900025321:3:54,,S Olympiastadion (Berlin),S-Bahnsteig Gleis 5,52.511565000000,13.242684000000,0,de:11000:900025321,0,,5656 S Olympiastadion (Berlin),2
de:11000:900025321:4:56,,S Olympiastadion (Berlin),S-Bahnsteig Gleis 7,52.511727000000,13.242607000000,0,de:11000:900025321,0,,5656 S Olympiastadion (Berlin),2
de:12060:900350160::4,,S Bernau Bhf,Bussteig Position D,52.676586000000,13.593291000000,0,,1,,5158 S Bernau Bhf,9
de:12065:900200008::3,,S Birkenwerder Bhf,Ersatzhalt An der Bahn hinter Clara-Zetrin-Straße,52.688240000000,13.288344000000,0,,0,,5154 S Birkenwerder Bhf,4
de:12065:900200009::1,,S Hohen Neuendorf,Bushalt Schönfließer Straße hinter Bahnstraße,52.669630000000,13.286403000000,0,,1,,5154 S Hohen Neuendorf,9
de:11000:900009104:1:50,,S+U Wedding (Berlin),S-Bahnsteig Gleis 1,52.543042000000,13.367693000000,0,de:11000:900009104,0,1,5555 S+U Wedding (Berlin),5
de:11000:900009104:1:51,,S+U Wedding (Berlin),S-Bahnsteig Gleis 2,52.543102000000,13.367604000000,0,de:11000:900009104,0,2,5555 S+U Wedding (Berlin),5
de:11000:900058102::2,,S Priesterweg (Berlin),Bushalt Prellerweg vor Priesterweg,52.458675000000,13.355021000000,0,,0,,5656 S Priesterweg (Berlin),9
de:11000:900063452::1,,S Südende (Berlin),Bushalt Steglitzer Damm ht. Buhrowstraße,52.448979000000,13.353909000000,0,,0,,5656 S Südende (Berlin),9
de:12065:900200013::3,,S Mühlenbeck-Mönchmühle,Ersatzhalt Wiesenstraße vor Kastanienallee,52.653960000000,13.388353000000,0,,0,,5255 S Mühlenbeck-Mönchmühle,4
de:12065:900200005::1,,S Oranienburg Bhf,Bushalt Stralsunder Straße hinter Willy-Brandt-Straße,52.754951000000,13.247758000000,0,,1,,5053 S Oranienburg Bhf,9
de:12065:900200007::1,,S Borgsdorf,Bushalt S Bahnhof Borgsdorf,52.714312000000,13.276797000000,0,,1,,5153 S Borgsdorf,4
de:12065:900200025::1,,"Hohen Neuendorf, Schönfließer Str.",Bushalt Schönfließer Straße hinter Berliner Straße,52.670818000000,13.281427000000,0,,0,,"5154 Hohen Neuendorf, Schönfließer Str.",9
de:12065:900203411::1,,"Schönfließ (OHV), Kirche",Bushalt Dorfstraße hinter Bergwalder Chaussee,52.655378000000,13.339220000000,0,,0,,"5255 Schönfließ (OHV), Kirche",4
de:11000:900048101::1,,S Grunewald (Berlin),Bushalt Am Bahnhof Grunewald vor Auerbacher Straße,52.487474000000,13.263400000000,0,,0,,5656 S Grunewald (Berlin),9
de:12060:900350163::1,,S Zepernick,Bushalt Schönower Straße vor Am Amtshaus,52.659533000000,13.532504000000,0,,1,,5257 S Zepernick,4
de:11000:900171002::3,,S Friedrichsfelde Ost (Berlin),Bushalt Bushafen Seddiner Straße Pos. 3,52.513629000000,13.520339000000,0,,0,,5656 S Friedrichsfelde Ost (Berlin),4
de:11000:900175001::9,,S+U Wuhletal (Berlin),Ersatzhalt Altentreptower Straße ggü. Bahnhof,52.513275000000,13.575830000000,0,,0,,5656 S+U Wuhletal (Berlin),4
de:11000:900171003::4,,S Springpfuhl (Berlin),Bushalt Allee der Kosmonauten vor Marzahner Ch.,52.525814000000,13.535266000000,0,,0,,5656 S Springpfuhl (Berlin),9
de:11000:900135001::1,,S Buch (Berlin),Bushalt Wiltbergstraße vor S Bahnbrücke,52.637134000000,13.491959000000,0,,0,,5656 S Buch (Berlin),9
de:11000:900162501::2,,S Karlshorst (Berlin),Ersatzhalt Wildensteiner Straße vor Wandlitzstraße,52.480410000000,13.523730000000,0,,0,,5656 S Karlshorst (Berlin),4
de:12065:900200006::1,,S Lehnitz,Ersatzhalt Birkenwerderweg hinter Gutsplatz,52.741404000000,13.262572000000,0,,0,,5053 S Lehnitz,4
de:12060:900350263::2,,"Bernau, Gaskessel",Bushalt Heinersdorfer Straße hinter Karl-Marx-Straße,52.675625000000,13.580759000000,0,,0,,"5158 Bernau, Gaskessel",9
de:12060:900350244::1,,"Bernau, Abzweig Wohnsiedlung",Bushalt Zepernicker Chaussee vor Kamastraße,52.669148000000,13.560649000000,0,,0,,"5158 Bernau, Abzweig Wohnsiedlung",9
de:12060:900350818::1,,"Bernau, Zepernicker Chaussee",Bushalt Zepernicker Chaussee vor Innstraße,52.672073000000,13.564454000000,0,,0,,"5158 Bernau, Zepernicker Chaussee",9
de:11000:900135511::1,,Alt-Buch (Berlin),Bushalt Pölnitzweg hinter Alt-Buch,52.636848000000,13.502959000000,0,,0,,5656 Alt-Buch (Berlin),4
de:12060:900350174::1,,"Zepernick, Kirche",Bushalt Schönower Straße vor Am Anger,52.654957000000,13.541991000000,0,,0,,"5257 Zepernick, Kirche",4
de:12060:900350175::1,,"Zepernick, Schweizer Str.",Bushalt Bucher Straße hinter Edelweißstraße,52.645172000000,13.525572000000,0,,0,,"5257 Zepernick, Schweizer Str.",4
de:11000:900008101:1:50,,S Humboldthain (Berlin),S-Bahnsteig Gleis 1,52.544883000000,13.379364000000,0,de:11000:900008101,0,1,5555 S Humboldthain (Berlin),105
de:11000:900008101:1:51,,S Humboldthain (Berlin),S-Bahnsteig Gleis 2,52.544856000000,13.379497000000,0,de:11000:900008101,0,2,5555 S Humboldthain (Berlin),105
de:11000:900049201:1:50,,S Zehlendorf (Berlin),S-Bahnsteig Gleis 1,52.430997000000,13.258035000000,0,de:11000:900049201,0,1,5656 S Zehlendorf (Berlin),33
de:11000:900049201:1:51,,S Zehlendorf (Berlin),S-Bahnsteig Gleis 2,52.430876000000,13.258140000000,0,de:11000:900049201,0,2,5656 S Zehlendorf (Berlin),33
de:11000:900049202:1:50,,S Sundgauer Str. (Berlin),S-Bahnsteig Gleis 1,52.436375000000,13.273898000000,0,de:11000:900049202,0,1,5656 S Sundgauer Str. (Berlin),66
de:11000:900049202:1:51,,S Sundgauer Str. (Berlin),S-Bahnsteig Gleis 2,52.436317000000,13.273950000000,0,de:11000:900049202,0,2,5656 S Sundgauer Str. (Berlin),66
de:11000:900050301:1:50,,S Mexikoplatz (Berlin),S-Bahnsteig Gleis 1,52.436783000000,13.233258000000,0,de:11000:900050301,0,1,5656 S Mexikoplatz (Berlin),114
de:11000:900050301:1:51,,S Mexikoplatz (Berlin),S-Bahnsteig Gleis 2,52.436719000000,13.233192000000,0,de:11000:900050301,0,2,5656 S Mexikoplatz (Berlin),114
de:11000:900050355:1:50,,S Schlachtensee (Berlin),S-Bahnsteig Gleis 1,52.440146000000,13.215488000000,0,de:11000:900050355,0,1,5656 S Schlachtensee (Berlin),114
de:11000:900050355:1:51,,S Schlachtensee (Berlin),S-Bahnsteig Gleis 2,52.440069000000,13.215529000000,0,de:11000:900050355,0,2,5656 S Schlachtensee (Berlin),114
de:11000:900052201:1:50,,S Nikolassee (Berlin),S-Bahnsteig Gleis 1,52.431802000000,13.194064000000,0,de:11000:900052201,0,1,5656 S Nikolassee (Berlin),132
de:11000:900052201:1:51,,S Nikolassee (Berlin),S-Bahnsteig Gleis 2,52.431741000000,13.194195000000,0,de:11000:900052201,0,2,5656 S Nikolassee (Berlin),132
de:11000:900054104:1:50,,S Schöneberg (Berlin),S-Bahnsteig Gleis 1,52.479248000000,13.351921000000,0,de:11000:900054104,0,1,5555 S Schöneberg (Berlin),86
de:11000:900054104:1:51,,S Schöneberg (Berlin),S-Bahnsteig Gleis 2,52.479308000000,13.351781000000,0,de:11000:900054104,0,2,5555 S Schöneberg (Berlin),86
de:11000:900057102:1:50,,S+U Yorckstr. (Großgörschenstr.) (Berlin),S-Bahnsteig Gleis 1,52.492301000000,13.367777000000,0,de:11000:900057102,0,,5555 S+U Yorckstr. (Großgörschenstr.) (Berlin),1
de:11000:900057102:1:51,,S+U Yorckstr. (Großgörschenstr.) (Berlin),S-Bahnsteig Gleis 2,52.492245000000,13.367968000000,0,de:11000:900057102,0,,5555 S+U Yorckstr. (Großgörschenstr.) (Berlin),1
de:11000:900060101:1:50,,S Friedenau (Berlin),S-Bahnsteig Gleis 1,52.470498000000,13.341152000000,0,de:11000:900060101,0,1,5656 S Friedenau (Berlin),111
de:11000:900060101:1:51,,S Friedenau (Berlin),S-Bahnsteig Gleis 2,52.470453000000,13.341258000000,0,de:11000:900060101,0,2,5656 S Friedenau (Berlin),111
de:11000:900062202:1:50,,S+U Rathaus Steglitz (Berlin),S Bahnsteig Gleis 1,52.455450000000,13.322332000000,0,de:11000:900062202,0,1,5656 S+U Rathaus Steglitz (Berlin),1
de:11000:900062202:1:51,,S+U Rathaus Steglitz (Berlin),S Bahnsteig Gleis 2,52.455394000000,13.322476000000,0,de:11000:900062202,0,2,5656 S+U Rathaus Steglitz (Berlin),1
de:11000:900063101:1:50,,S Feuerbachstr. (Berlin),S-Bahnsteig Gleis 1,52.463431000000,13.332339000000,0,de:11000:900063101,0,,5656 S Feuerbachstr. (Berlin),105
de:11000:900063101:1:51,,S Feuerbachstr. (Berlin),S-Bahnsteig Gleis 2,52.463397000000,13.332414000000,0,de:11000:900063101,0,,5656 S Feuerbachstr. (Berlin),105
de:11000:900066101:1:50,,S Lichterfelde West (Berlin),S-Bahnsteig Gleis 1,52.443216000000,13.293109000000,0,de:11000:900066101,0,1,5656 S Lichterfelde West (Berlin),134
de:11000:900066101:1:51,,S Lichterfelde West (Berlin),S-Bahnsteig Gleis 2,52.443101000000,13.293216000000,0,de:11000:900066101,0,2,5656 S Lichterfelde West (Berlin),134
de:11000:900066102:1:50,,S Botanischer Garten (Berlin),S-Bahnsteig Gleis 1,52.448005000000,13.307177000000,0,de:11000:900066102,0,1,5656 S Botanischer Garten (Berlin),66
de:11000:900066102:1:51,,S Botanischer Garten (Berlin),S-Bahnsteig Gleis 2,52.447960000000,13.307229000000,0,de:11000:900066102,0,2,5656 S Botanischer Garten (Berlin),66
de:11000:900175001:1:50,,S+U Wuhletal (Berlin),S-Bahn Bahnsteig Gleis 11,52.512766000000,13.575204000000,0,de:11000:900175001,0,,5656 S+U Wuhletal (Berlin),25
de:11000:900084101:1:50,,S Wilhelmsruh (Berlin),Bahnsteig Gleis 1,52.581656000000,13.362192000000,0,de:11000:900084101,0,1,5656 S Wilhelmsruh (Berlin),33
de:11000:900084101:1:51,,S Wilhelmsruh (Berlin),Bahnsteig Gleis 2,52.581723000000,13.362300000000,0,de:11000:900084101,0,2,5656 S Wilhelmsruh (Berlin),33
de:11000:900058101:1:50,,S Südkreuz Bhf (Berlin),S-Bahnsteig Gleis 1,52.476190000000,13.365085000000,0,de:11000:900058101,0,1,5555 S Südkreuz Bhf (Berlin),9
de:11000:900058101:1:51,,S Südkreuz Bhf (Berlin),S-Bahnsteig Gleis 2,52.476146000000,13.365282000000,0,de:11000:900058101,0,2,5555 S Südkreuz Bhf (Berlin),9
de:11000:900152001::4,,S Hohenschönhausen Bhf (Berlin),Bushalt Falkenberger Chaussee hinter Egon-Erwin-Kisch-Straße,52.566472000000,13.513129000000,0,,0,,5656 S Hohenschönhausen Bhf (Berlin),9
de:11000:900024102:3:54,,S Westkreuz (Berlin),S-Bahnsteig Gleis 11,52.500854000000,13.283931000000,0,de:11000:900024102,0,11,5555 S Westkreuz (Berlin),2
de:11000:900024102:3:55,,S Westkreuz (Berlin),S-Bahnsteig Gleis 12,52.500811000000,13.283790000000,0,de:11000:900024102,0,12,5555 S Westkreuz (Berlin),2
de:11000:900052201:2:52,,S Nikolassee (Berlin),S-Bahnsteig Gleis 3,52.432185000000,13.193136000000,0,de:11000:900052201,0,3,5656 S Nikolassee (Berlin),133
de:11000:900052201:2:53,,S Nikolassee (Berlin),S-Bahnsteig Gleis 4,52.432172000000,13.193273000000,0,de:11000:900052201,0,4,5656 S Nikolassee (Berlin),133
de:11000:900054104:2:52,,S Schöneberg (Berlin),S-Bahnsteig Gleis 11,52.479325000000,13.351584000000,0,de:11000:900054104,0,11,5555 S Schöneberg (Berlin),24
de:11000:900054104:2:53,,S Schöneberg (Berlin),S-Bahnsteig Gleis 12,52.479240000000,13.351632000000,0,de:11000:900054104,0,12,5555 S Schöneberg (Berlin),24
de:11000:900058101:5:58,,S Südkreuz Bhf (Berlin),S-Bahnsteig Gleis 11,52.475881000000,13.365602000000,0,de:11000:900058101,0,11,5555 S Südkreuz Bhf (Berlin),143
de:11000:900058101:5:59,,S Südkreuz Bhf (Berlin),S-Bahnsteig Gleis 12,52.475662000000,13.365184000000,0,de:11000:900058101,0,12,5555 S Südkreuz Bhf (Berlin),143
de:12069:900220114:1:50,,S Teltow Stadt,Bahnsteig Gleis 1,52.396943000000,13.276604000000,0,de:12069:900220114,0,1,5953 S Teltow Stadt,105
de:12069:900220114:1:51,,S Teltow Stadt,Bahnsteig Gleis 2,52.396877000000,13.276641000000,0,de:12069:900220114,0,2,5953 S Teltow Stadt,105
de:11000:900058103:1:50,,S+U Yorckstr. (Berlin),S-Bahnsteig Gleis 1,52.491339000000,13.372006000000,0,de:11000:900058103,0,,5555 S+U Yorckstr. (Berlin),1
de:11000:900058103:1:51,,S+U Yorckstr. (Berlin),S-Bahnsteig Gleis 2,52.491334000000,13.372158000000,0,de:11000:900058103,0,,5555 S+U Yorckstr. (Berlin),1
de:11000:900186001:1:50,,S Grünau (Berlin),S-Bahnsteig Gleis 1,52.412432000000,13.573957000000,0,de:11000:900186001,0,1,5656 S Grünau (Berlin),5
de:11000:900186001:1:51,,S Grünau (Berlin),S-Bahnsteig Gleis 2,52.412481000000,13.574059000000,0,de:11000:900186001,0,2,5656 S Grünau (Berlin),5
de:11000:900186001:2:52,,S Grünau (Berlin),S-Bahnsteig Gleis 3,52.412518000000,13.574189000000,0,de:11000:900186001,0,3,5656 S Grünau (Berlin),5
de:11000:900186001:2:53,,S Grünau (Berlin),S-Bahnsteig Gleis 4,52.412568000000,13.574282000000,0,de:11000:900186001,0,4,5656 S Grünau (Berlin),5
de:11000:900012101:1:51,,S Anhalter Bahnhof (Berlin),Bahnsteig Gleis 2,52.503564000000,13.381396000000,0,de:11000:900012101,0,2,5555 S Anhalter Bahnhof (Berlin),66
de:11000:900012101:2:52,,S Anhalter Bahnhof (Berlin),Bahnsteig Gleis 3,52.503542000000,13.381498000000,0,de:11000:900012101,0,3,5555 S Anhalter Bahnhof (Berlin),66
de:11000:900012101:2:53,,S Anhalter Bahnhof (Berlin),Bahnsteig Gleis 4,52.503514000000,13.381617000000,0,de:11000:900012101,0,4,5555 S Anhalter Bahnhof (Berlin),66
de:11000:900100020:3:54,,S+U Potsdamer Platz Bhf (Berlin),S-Bahnsteig Gleis 11,52.509605000000,13.376454000000,0,de:11000:900100020,0,,5555 S+U Potsdamer Platz Bhf (Berlin),19
de:11000:900100020:3:55,,S+U Potsdamer Platz Bhf (Berlin),S-Bahnsteig Gleis 12,52.509605000000,13.376579000000,0,de:11000:900100020,0,,5555 S+U Potsdamer Platz Bhf (Berlin),19
de:11000:900100020:4:56,,S+U Potsdamer Platz Bhf (Berlin),S-Bahnsteig Gleis 13,52.509638000000,13.376708000000,0,de:11000:900100020,0,,5555 S+U Potsdamer Platz Bhf (Berlin),19
de:11000:900100020:4:57,,S+U Potsdamer Platz Bhf (Berlin),S-Bahnsteig Gleis 14,52.509635000000,13.376837000000,0,de:11000:900100020,0,,5555 S+U Potsdamer Platz Bhf (Berlin),19
de:11000:900007104:1:50,,S Nordbahnhof (Berlin),S-Bahnsteig Gleis 1,52.532334000000,13.387507000000,0,de:11000:900007104,0,,5555 S Nordbahnhof (Berlin),3
de:11000:900007104:2:52,,S Nordbahnhof (Berlin),S-Bahnsteig Gleis 3,52.532421000000,13.387655000000,0,de:11000:900007104,0,,5555 S Nordbahnhof (Berlin),3
de:11000:900100001:4:56,,S+U Friedrichstr. Bhf (Berlin),S-Bahnsteig Gleis 11,52.520479000000,13.386234000000,0,de:11000:900100001,0,,5555 S+U Friedrichstr. Bhf (Berlin),22
de:11000:900100001:4:57,,S+U Friedrichstr. Bhf (Berlin),S-Bahnsteig Gleis 12,52.520424000000,13.386350000000,0,de:11000:900100001,0,,5555 S+U Friedrichstr. Bhf (Berlin),22
de:11000:900100007:1:50,,S Oranienburger Str. (Berlin),S-Bahnsteig Gleis 1,52.525287000000,13.392985000000,0,de:11000:900100007,0,,5555 S Oranienburger Str. (Berlin),66
de:11000:900100007:1:51,,S Oranienburger Str. (Berlin),S-Bahnsteig Gleis 2,52.525264000000,13.393093000000,0,de:11000:900100007,0,,5555 S Oranienburger Str. (Berlin),66
de:11000:900100025:1:51,,S+U Brandenburger Tor (Berlin),S-Bahnsteig Gleis 2,52.516351000000,13.381690000000,0,de:11000:900100025,0,2,5555 S+U Brandenburger Tor (Berlin),130
de:11000:900100025:1:50,,S+U Brandenburger Tor (Berlin),S-Bahnsteig Gleis 1,52.516483000000,13.381658000000,0,de:11000:900100025,0,1,5555 S+U Brandenburger Tor (Berlin),130
de:11000:900012101:1:50,,S Anhalter Bahnhof (Berlin),Bahnsteig Gleis 1,52.503590000000,13.381283000000,0,de:11000:900012101,0,1,5555 S Anhalter Bahnhof (Berlin),66
de:11000:900171531::1,,Oberfeldstr. (Berlin),Bushalt Alt-Biesdorf vor Grabensprung,52.509091000000,13.552295000000,0,,0,,5656 Oberfeldstr. (Berlin),4
de:11000:900092201::2,,S Frohnau (Berlin),Bushalt Ludolfingerplatz ht. Welfenallee,52.632435000000,13.288737000000,0,,0,,5656 S Frohnau (Berlin),9
de:11000:900057104:2:51,,S Julius-Leber-Brücke (Berlin),S-Bahnsteig Gleis 2,52.486450000000,13.361028000000,0,de:11000:900057104,0,,5555 S Julius-Leber-Brücke (Berlin),105
de:11000:900057104:1:50,,S Julius-Leber-Brücke (Berlin),S-Bahnsteig Gleis 1,52.486411000000,13.361128000000,0,de:11000:900057104,0,,5555 S Julius-Leber-Brücke (Berlin),105
de:11000:900182002::4,,S Friedrichshagen (Berlin),Tram- u. Bushalt Bölschestr vor Fürstenw. Damm,52.456252000000,13.625477000000,0,,0,,5656 S Friedrichshagen (Berlin),4
de:11000:900183003::8,,Rahnsdorf/Waldschänke (Berlin),Bushalt Fürstenwalder Allee vor Woltersdorfer Weg,52.441789000000,13.686752000000,0,,0,,5656 Rahnsdorf/Waldschänke (Berlin),4
de:11000:900135506::1,,Alt-Buch/Wiltbergstr. (Berlin),Bushalt Wiltbgstraße ht. Walter-Friedrich-Straße,52.634236000000,13.497208000000,0,,0,,5656 Alt-Buch/Wiltbergstr. (Berlin),4
de:12061:900260003:1:50,,S Zeuthen,S-Bahnsteig Gleis 3,52.348641000000,13.627388000000,0,de:12061:900260003,0,3,5959 S Zeuthen,33
de:12061:900260003:1:51,,S Zeuthen,S-Bahnsteig Gleis 4,52.348689000000,13.627548000000,0,de:12061:900260003,0,4,5959 S Zeuthen,33
de:11000:900183001::1,,S Rahnsdorf (Berlin),Bushalt Ingeborg-Hunzinger-S. ht. Alter Fischerweg,52.450976000000,13.691136000000,0,,0,,5656 S Rahnsdorf (Berlin),4
de:11000:900182003::3,,"Berlin, Hirschgarten",Bushalt Fürstenwalder Damm vor Müggelseedamm,52.451767000000,13.600317000000,0,,0,,"5656 Berlin, Hirschgarten",4
de:11000:900093201:1:50,,S Hermsdorf (Berlin),S-Bahnsteig Gleis 1,52.617336000000,13.307756000000,0,de:11000:900093201,0,1,5656 S Hermsdorf (Berlin),140
de:11000:900094101::4,,S Waidmannslust (Berlin),Bushalt Jean-Jaurès-Str. ht. Waidmannslust,52.606681000000,13.320067000000,0,,0,,5656 S Waidmannslust (Berlin),9
de:11000:900180512::1,,"Berlin, Brandenburgplatz",Tram- und Bushaltestelle Seelenbinderstraße vor Brandenbgplatz,52.455294000000,13.590509000000,0,,0,,"5656 Berlin, Brandenburgplatz",4
de:11000:900195510:1:51,,S Altglienicke (Berlin),S-Bahnsteig Gleis 1,52.407359000000,13.558798000000,0,de:11000:900195510,0,1,5656 S Altglienicke (Berlin),2
de:11000:900195510:1:50,,S Altglienicke (Berlin),S-Bahnsteig Gleis 2,52.407309000000,13.558877000000,0,de:11000:900195510,0,2,5656 S Altglienicke (Berlin),2
de:11000:900196001:1:50,,S Grünbergallee (Berlin),S-Bahnsteig Gleis 1,52.399343000000,13.541956000000,0,de:11000:900196001,0,1,5656 S Grünbergallee (Berlin),5
de:11000:900196001:1:51,,S Grünbergallee (Berlin),S-Bahnsteig Gleis 2,52.399271000000,13.541989000000,0,de:11000:900196001,0,2,5656 S Grünbergallee (Berlin),5
de:12061:900260002:1:51,,S Wildau,Bahnsteig Gleis 4,52.319311000000,13.633840000000,0,de:12061:900260002,1,4,5959 S Wildau,158
de:12061:900260004:1:50,,S Eichwalde,Bahnsteig Gleis 3,52.371240000000,13.615279000000,0,de:12061:900260004,1,3,5859 S Eichwalde,111
de:12061:900260004:1:51,,S Eichwalde,Bahnsteig Gleis 4,52.371288000000,13.615452000000,0,de:12061:900260004,1,4,5859 S Eichwalde,111
de:12061:900260005:3:54,,S Schönefeld (bei Berlin) Bhf,S-Bahnsteig Gleis 11,52.390971000000,13.513024000000,0,de:12061:900260005,0,,5957 S Schönefeld (bei Berlin) Bhf,4
de:12061:900260005:3:55,,S Schönefeld (bei Berlin) Bhf,S-Bahnsteig Gleis 13,52.390884000000,13.513150000000,0,de:12061:900260005,0,,5957 S Schönefeld (bei Berlin) Bhf,4
de:11000:900073101::3,,S Marienfelde (Berlin),"Bushalt Bahnstr., Vorplatz S Marienfelde",52.423450000000,13.374687000000,0,,0,,5656 S Marienfelde (Berlin),9
de:11000:900068301::2,,S Attilastr. (Berlin),Bushalt Steglitzer Damm hinter Attilastraße,52.447104000000,13.360436000000,0,,0,,5656 S Attilastr. (Berlin),9
de:11000:900074202::1,,S Schichauweg (Berlin),Bushalt Barnetstraße hinter Kettinger Straße,52.398572000000,13.389217000000,0,,0,,5656 S Schichauweg (Berlin),4
de:11000:900181003::3,,Freizeit- und Erholungszentrum (Berlin),Bushalt An der Wuhlheide ht. Weiskopffstraße,52.457369000000,13.543823000000,0,,0,,5656 Freizeit- und Erholungszentrum (Berlin),4
de:11000:900120003:2:53,,S Ostkreuz Bhf (Berlin),S-Bahnsteig Gleis 3,52.503125000000,13.468633000000,0,de:11000:900120003,0,3,5555 S Ostkreuz Bhf (Berlin),4
de:11000:900120003:2:52,,S Ostkreuz Bhf (Berlin),S-Bahnsteig Gleis 4,52.503282000000,13.468710000000,0,de:11000:900120003,0,4,5555 S Ostkreuz Bhf (Berlin),4
de:11000:900120004:2:52,,S+U Warschauer Str. (Berlin),Bahnsteig Gleis 3,52.506306000000,13.450761000000,0,de:11000:900120004,0,3,5555 S+U Warschauer Str. (Berlin),2
de:11000:900092201:1:50,,S Frohnau (Berlin),S-Bahnsteig Gleis 1,52.632307000000,13.290440000000,0,de:11000:900092201,0,1,5656 S Frohnau (Berlin),105
de:11000:900092201:1:51,,S Frohnau (Berlin),S-Bahnsteig Gleis 2,52.632260000000,13.290322000000,0,de:11000:900092201,0,2,5656 S Frohnau (Berlin),105
de:11000:900093201:1:51,,S Hermsdorf (Berlin),S-Bahnsteig Gleis 2,52.617287000000,13.307619000000,0,de:11000:900093201,0,2,5656 S Hermsdorf (Berlin),140
de:11000:900094101:1:50,,S Waidmannslust (Berlin),S-Bahnsteig Gleis 1,52.606320000000,13.321223000000,0,de:11000:900094101,0,1,5656 S Waidmannslust (Berlin),33
de:11000:900094101:1:51,,S Waidmannslust (Berlin),S-Bahnsteig Gleis 2,52.606257000000,13.321086000000,0,de:11000:900094101,0,2,5656 S Waidmannslust (Berlin),33
de:11000:900096101:1:50,,S+U Wittenau (Berlin),S-Bahnsteig Gleis 1,52.597097000000,13.334311000000,0,de:11000:900096101,0,,5656 S+U Wittenau (Berlin),5
de:11000:900096101:1:51,,S+U Wittenau (Berlin),S-Bahnsteig Gleis 2,52.597008000000,13.334183000000,0,de:11000:900096101,0,,5656 S+U Wittenau (Berlin),5
de:11000:900110003:1:50,,S Greifswalder Str. (Berlin),S-Bahnsteig Gleis 1,52.540109000000,13.439108000000,0,de:11000:900110003,0,1,5555 S Greifswalder Str. (Berlin),114
de:11000:900110003:1:51,,S Greifswalder Str. (Berlin),S-Bahnsteig Gleis 2,52.540212000000,13.439227000000,0,de:11000:900110003,0,2,5555 S Greifswalder Str. (Berlin),114
de:11000:900110004:1:50,,S Landsberger Allee (Berlin),S-Bahnsteig Gleis 1,52.529316000000,13.454840000000,0,de:11000:900110004,0,1,5555 S Landsberger Allee (Berlin),22
de:11000:900110004:1:51,,S Landsberger Allee (Berlin),S-Bahnsteig Gleis 2,52.529386000000,13.454998000000,0,de:11000:900110004,0,2,5555 S Landsberger Allee (Berlin),22
de:11000:900110012:1:50,,S Storkower Str. (Berlin),S-Bahnsteig Gleis 1,52.523660000000,13.465047000000,0,de:11000:900110012,0,1,5555 S Storkower Str. (Berlin),4
de:11000:900110012:1:51,,S Storkower Str. (Berlin),S-Bahnsteig Gleis 2,52.523731000000,13.465094000000,0,de:11000:900110012,0,2,5555 S Storkower Str. (Berlin),4
de:11000:900120001:1:50,,S+U Frankfurter Allee (Berlin),S Bahnsteig Gleis 1,52.515383000000,13.474280000000,0,de:11000:900120001,0,1,5555 S+U Frankfurter Allee (Berlin),99
de:11000:900120001:1:51,,S+U Frankfurter Allee (Berlin),S Bahnsteig Gleis 2,52.515401000000,13.474370000000,0,de:11000:900120001,0,2,5555 S+U Frankfurter Allee (Berlin),99
de:11000:900120003:5:58,,S Ostkreuz Bhf (Berlin),S-Bahnsteig Gleis 11,52.503422000000,13.469006000000,0,de:11000:900120003,0,11,5555 S Ostkreuz Bhf (Berlin),1
de:11000:900120003:5:59,,S Ostkreuz Bhf (Berlin),S-Bahnsteig Gleis 12,52.503314000000,13.469607000000,0,de:11000:900120003,0,12,5555 S Ostkreuz Bhf (Berlin),1
de:11000:900190001:1:50,,S Treptower Park (Berlin),S-Bahnsteig Gleis 1,52.493746000000,13.461502000000,0,de:11000:900190001,0,1,5555 S Treptower Park (Berlin),1
de:11000:900190001:2:52,,S Treptower Park (Berlin),S-Bahnsteig Gleis 2,52.493667000000,13.461736000000,0,de:11000:900190001,0,2,5555 S Treptower Park (Berlin),1
de:11000:900190001:2:53,,S Treptower Park (Berlin),S-Bahnsteig Gleis 4,52.493629000000,13.461846000000,0,de:11000:900190001,0,4,5555 S Treptower Park (Berlin),1
de:11000:900190001:1:51,,S Treptower Park (Berlin),S-Bahnsteig Gleis 3,52.493711000000,13.461615000000,0,de:11000:900190001,0,3,5555 S Treptower Park (Berlin),1
de:11000:900120004:2:53,,S+U Warschauer Str. (Berlin),Bahnsteig Gleis 4,52.506404000000,13.450818000000,0,de:11000:900120004,0,4,5555 S+U Warschauer Str. (Berlin),2
de:12061:900260002:1:50,,S Wildau,Bahnsteig Gleis 3,52.319325000000,13.633739000000,0,de:12061:900260002,1,3,5959 S Wildau,158
de:11000:900171533::1,,Schlosspark Biesdorf (Berlin),Bushalt Blumberger Damm vor Frankenholzer Weg,52.511744000000,13.562140000000,0,,0,,5656 Schlosspark Biesdorf (Berlin),4
de:11000:900025321::1,,S Olympiastadion (Berlin),Bushalt Jesse-Owens-Allee vor Flatowallee,52.511132000000,13.239666000000,0,,0,,5656 S Olympiastadion (Berlin),4
de:11000:900026105::2,,S Heerstr. (Berlin),Bushalt Heerstraße hinter Teufelsseestraße,52.508475000000,13.258741000000,0,,0,,5656 S Heerstr. (Berlin),4
de:11000:900182501::3,,"Berlin, Westendsiedlung",Bushalt Fürstenwalder Damm vor Marienwerderweg,52.453097000000,13.607660000000,0,,0,,"5656 Berlin, Westendsiedlung",4
de:11000:900180009::7,,Bahnhofstr./Seelenbinderstr. (Berlin),Ersatzhalt Bahnhofstraße vor Seelenbinderstraße,52.455527000000,13.577053000000,0,,0,,5656 Bahnhofstr./Seelenbinderstr. (Berlin),4
de:11000:900025552::1,,Messegelände/ICC (Berlin),Bushalt Messedamm ht. Halenseestraße,52.504479000000,13.279724000000,0,,0,,5656 Messegelände/ICC (Berlin),4
de:11000:900089391::1,,"Berlin, An der Mühle",Bushaltestelle An der Mühle auf dem Parkplatz,52.594347000000,13.279040000000,0,,0,,"5656 Berlin, An der Mühle",4
de:11000:900024106::1,,S Messe Nord/ICC (Berlin),Bushalt Neue Kantstraße vor Dernburgstraße,52.506346000000,13.283374000000,0,,0,,5555 S Messe Nord/ICC (Berlin),9
de:11000:900093251::1,,Schildower Str. (Berlin),Bushalt Berliner Straße hinter Schildower Straße,52.618068000000,13.315501000000,0,,0,,5656 Schildower Str. (Berlin),4
de:11000:900092282::1,,Zeltinger Platz/S Frohnau (Berlin),Bushalt Zeltinger Platz höhe Hausnummer 3,52.633654000000,13.290195000000,0,,0,,5656 Zeltinger Platz/S Frohnau (Berlin),4
de:11000:900088201::3,,U Holzhauser Str. (Berlin),Bushalt Berliner Straße ht. Holzhauser Straße,52.576954000000,13.294545000000,0,,0,,5656 U Holzhauser Str. (Berlin),4
de:11000:900088202::4,,U Borsigwerke (Berlin),Bushalt Berliner Straße vor Ernststraße,52.582377000000,13.290218000000,0,,0,,5656 U Borsigwerke (Berlin),4
de:11000:900087101::4,,U Scharnweberstr. (Berlin),Bushalt Scharnweberstraße ht. Eichborndamm,52.568096000000,13.311426000000,0,,0,,5656 U Scharnweberstr. (Berlin),4
de:11000:900086102::5,,U Kurt-Schumacher-Platz (Berlin),Bushalt Kurt-Schumacher-Damm vor Straße 462,52.563346000000,13.326896000000,0,,0,,5656 U Kurt-Schumacher-Platz (Berlin),4
de:11000:900009103::9,,U Seestr. (Berlin),Bushalt Müllerstraße ht. Seestraße,52.550027000000,13.352546000000,0,,0,,5656 U Seestr. (Berlin),4
de:11000:900009102::6,,U Leopoldplatz (Berlin),Bushalt Nazarethkirchstraße ht. Müllerstraße,52.547174000000,13.358551000000,0,,0,,5656 U Leopoldplatz (Berlin),4
de:11000:900009103::11,,U Seestr. (Berlin),Bushalt Müllerstraße ht. Seestraße,52.550895000000,13.351459000000,0,,0,,5656 U Seestr. (Berlin),4
de:11000:900011101::3,,U Rehberge (Berlin),Bushalt Müllerstraße 108 A vor Dubliner Straße,52.556822000000,13.340527000000,0,,0,,5656 U Rehberge (Berlin),4
de:11000:900009102::9,,U Leopoldplatz (Berlin),Bushalt Müllerstraße ht. Schulstraße,52.546924000000,13.358479000000,0,,0,,5656 U Leopoldplatz (Berlin),4
de:11000:900011101::4,,U Rehberge (Berlin),Bushalt Müllerstraße vor Dubliner Straße,52.556612000000,13.341374000000,0,,0,,5656 U Rehberge (Berlin),4
de:11000:900011102::4,,U Afrikanische Str. (Berlin),Bushalt Müllerstraße ht. Ausfahrt des Betriebshofs,52.559727000000,13.335841000000,0,,0,,5656 U Afrikanische Str. (Berlin),4
de:11000:900086161::1,,U Otisstraße (Berlin),Bushalt Seidelstraße ht. Otisstraße,52.569520000000,13.300835000000,0,,0,,5656 U Otisstraße (Berlin),4
de:11000:900086161::2,,U Otisstraße (Berlin),Bushalt Seidelstraße vor Otisstraße,52.569861000000,13.300600000000,0,,0,,5656 U Otisstraße (Berlin),4
de:11000:900011102::5,,U Afrikanische Str. (Berlin),Bushalt Müllerstraße ggü. des Betriebshofs,52.559729000000,13.335422000000,0,,0,,5656 U Afrikanische Str. (Berlin),4
de:11000:900086102::4,,U Kurt-Schumacher-Platz (Berlin),Bushalt Straße 462 ht. Kurt-Schumacher-Damm,52.563163000000,13.325470000000,0,,0,,5656 U Kurt-Schumacher-Platz (Berlin),4
de:11000:900025425::1,,Jafféstr. (Berlin),Bushalt Messedamm vor Jafféstraße,52.499640000000,13.273089000000,0,,0,,5656 Jafféstr. (Berlin),4
de:11000:900024101::1,,S Charlottenburg Bhf (Berlin),Bushalt Stuttgarter Platz vor Lewishamstr. Pos. 5,52.505385000000,13.302266000000,0,,0,,5555 S Charlottenburg Bhf (Berlin),9
de:11000:900093156::1,,Hohefeldstr. (Berlin),Bushaltestelle Hermsdorfer Damm hinter Schloßstraße,52.620776000000,13.306704000000,0,,0,,5656 Hohefeldstr. (Berlin),4
de:11000:900152002::1,,S Gehrenseestr. (Berlin),Bushalt Gehrenseestr. Brücke über S-Bahn,52.555804000000,13.525847000000,0,,0,,5656 S Gehrenseestr. (Berlin),9
de:11000:900175004::3,,U Kaulsdorf-Nord (Berlin),Bushalt Hellersdorfer Str. ht. Ludwigsluster Str.,52.520131000000,13.588096000000,0,,0,,5656 U Kaulsdorf-Nord (Berlin),4
de:11000:900175705::1,,U Kienberg (Berlin),Bushalt Hellersdorfer Straße ht. Feldberger Ring,52.527333000000,13.589075000000,0,,0,,5656 U Kienberg (Berlin),4
de:11000:900175007::5,,U Hellersdorf (Berlin),Bushalt Hellersdf. Str. ht. Stendaler Str. Pos. 1,52.536462000000,13.603639000000,0,,0,,5656 U Hellersdorf (Berlin),4
de:11000:900175006::3,,U Cottbusser Platz (Berlin),Bushalt Hellersdorfer Str. ggü. U-Bahnhof,52.534201000000,13.595458000000,0,,0,,5656 U Cottbusser Platz (Berlin),4
de:11000:900175006::4,,U Cottbusser Platz (Berlin),Bushalt Hellersdorfer Straße vor dem U-Bahnhof,52.534356000000,13.596805000000,0,,0,,5656 U Cottbusser Platz (Berlin),4
de:11000:900175007::6,,U Hellersdorf (Berlin),Bushalt Hellersdf. Str. vor Riesaer Str. Pos. 2,52.536337000000,13.603832000000,0,,0,,5656 U Hellersdorf (Berlin),4
de:11000:900175705::2,,U Kienberg (Berlin),Bushalt Hellersdorfer Straße vor Feldberger Ring,52.527473000000,13.589532000000,0,,0,,5656 U Kienberg (Berlin),4
de:11000:900151008::01,,Grevesmühlener Str. (Berlin),Bushalt Egon-Erwin-Kisch-Str. hi Grevesmühlener St,52.568066000000,13.512477000000,0,,0,,5656 Grevesmühlener Str. (Berlin),4
de:11000:900151001::2,,S Wartenberg (Berlin),Bushalt E-Erwin-Kisch-Str ht. Zugang S-Bahn,52.573492000000,13.504718000000,0,,0,,5656 S Wartenberg (Berlin),111
de:11000:900175001::4,,S+U Wuhletal (Berlin),Bushalt Altentreptower Straße Bushafen 1. Mast,52.512866000000,13.575961000000,0,,0,,5656 S+U Wuhletal (Berlin),4
de:11000:900181513::3,,Alte Försterei (Berlin),Bushalt An der Wuhlheide ht. Rudolf-Rühl-Allee,52.456333000000,13.563736000000,0,,0,,5656 Alte Försterei (Berlin),4
de:11000:900175007::10,,U Hellersdorf (Berlin) [Pos. 6],Ersatzhalt Riesaer Str. vor Alice-Salomon-P. Pos. 6,52.535918000000,13.605675000000,0,,0,,5656 U Hellersdorf (Berlin) [Pos. 6],4
de:11000:900175007::12,,U Hellersdorf (Berlin),Ersatzhalt Riesaer Straße ht. U Hellersdorf,52.534645000000,13.605999000000,0,,0,,5656 U Hellersdorf (Berlin),4
de:11000:900089301::10,,U Alt-Tegel (Berlin),Ersatzhalt Berliner Straße vor Gorkistraße,52.589406000000,13.284007000000,0,,0,,5656 U Alt-Tegel (Berlin),4
de:11000:900088201::9,,U Holzhauser Str. (Berlin),Ersatzhalt Seidelstraße ht. B.-Lichtenberg-Platz,52.575237000000,13.295354000000,0,,0,,5656 U Holzhauser Str. (Berlin),4
de:11000:900087101::8,,U Scharnweberstr. (Berlin),Bushalt Scharnweberstraße ht. Eichborndamm,52.567763000000,13.312337000000,0,,0,,5656 U Scharnweberstr. (Berlin),4
de:11000:900120004::1,,S+U Warschauer Str. (Berlin),Bahnsteig Gleis 1,52.504862000000,13.448802000000,0,de:11000:900120004,0,,5555 S+U Warschauer Str. (Berlin),5
de:11000:900120004::3,,S+U Warschauer Str. (Berlin),Bahnsteig Gleis 3,52.504886000000,13.449123000000,0,de:11000:900120004,0,,5555 S+U Warschauer Str. (Berlin),5
de:11000:900014102::1,,U Schlesisches Tor (Berlin),Bahnsteig Richtung Uhlandstraße/Krumme Lanke,52.500747000000,13.441051000000,0,de:11000:900014102,0,,5555 U Schlesisches Tor (Berlin),58
de:11000:900014102::2,,U Schlesisches Tor (Berlin),Bahnsteig Richtung Warschauer Straße,52.500720000000,13.441059000000,0,de:11000:900014102,0,,5555 U Schlesisches Tor (Berlin),58
de:11000:900014101::1,,U Görlitzer Bahnhof (Berlin),U Bahnsteig Gleis 1,52.499292000000,13.428277000000,0,de:11000:900014101,0,,5555 U Görlitzer Bahnhof (Berlin),1
de:11000:900014101::2,,U Görlitzer Bahnhof (Berlin),U Bahnsteig Gleis 2,52.499270000000,13.428283000000,0,de:11000:900014101,0,,5555 U Görlitzer Bahnhof (Berlin),1
de:11000:900013102::1,,U Kottbusser Tor (Berlin),U Bahnsteig U1 U3 Gleis 1,52.499051000000,13.418395000000,0,de:11000:900013102,0,,5555 U Kottbusser Tor (Berlin),70
de:11000:900013102::2,,U Kottbusser Tor (Berlin),U Bahnsteig U1 U3 Gleis 2,52.498933000000,13.418417000000,0,de:11000:900013102,0,,5555 U Kottbusser Tor (Berlin),70
de:11000:900013103::1,,U Prinzenstr. (Berlin),U Bahnsteig Gleis 1,52.498406000000,13.405401000000,0,de:11000:900013103,0,,5555 U Prinzenstr. (Berlin),1
de:11000:900013103::2,,U Prinzenstr. (Berlin),U Bahnsteig Gleis 2,52.498379000000,13.405403000000,0,de:11000:900013103,0,,5555 U Prinzenstr. (Berlin),1
de:11000:900012103::1,,U Hallesches Tor (Berlin),Bahnsteig U1/U3 Gleis 2,52.497812000000,13.390351000000,0,de:11000:900012103,0,,5555 U Hallesches Tor (Berlin),24
de:11000:900012103::2,,U Hallesches Tor (Berlin),Bahnsteig U1/U3 Gleis 2,52.497767000000,13.390336000000,0,de:11000:900012103,0,,5555 U Hallesches Tor (Berlin),24
de:11000:900017104::1,,U Möckernbrücke (Berlin),U Bahnsteig Gleis 1 (oben),52.499129000000,13.382661000000,0,de:11000:900017104,0,,5555 U Möckernbrücke (Berlin),46
de:11000:900017104::2,,U Möckernbrücke (Berlin),U Bahnsteig Gleis 2 (oben),52.499087000000,13.382665000000,0,de:11000:900017104,0,,5555 U Möckernbrücke (Berlin),46
de:11000:900017103::1,,U Gleisdreieck (Berlin),U Bahnsteig Gleis 1 (oben),52.499567000000,13.374084000000,0,de:11000:900017103,0,,5555 U Gleisdreieck (Berlin),1
de:11000:900017103::2,,U Gleisdreieck (Berlin),U Bahnsteig Gleis 2 (oben),52.499430000000,13.374057000000,0,de:11000:900017103,0,,5555 U Gleisdreieck (Berlin),1
de:11000:900005201::1,,U Kurfürstenstr. (Berlin),U Bahnsteig Gleis 1,52.500152000000,13.361504000000,0,de:11000:900005201,0,,5555 U Kurfürstenstr. (Berlin),2
de:11000:900005201::2,,U Kurfürstenstr. (Berlin),U Bahnsteig Gleis 2,52.500068000000,13.361436000000,0,de:11000:900005201,0,,5555 U Kurfürstenstr. (Berlin),2
de:11000:900056102::1,,U Nollendorfplatz (Berlin),U Bahnsteig Gleis 1 (unten),52.499966000000,13.354616000000,0,de:11000:900056102,0,,5555 U Nollendorfplatz (Berlin),3
de:11000:900056102::2,,U Nollendorfplatz (Berlin),U Bahnsteig Gleis 2 (mitte),52.499938000000,13.354544000000,0,de:11000:900056102,0,,5555 U Nollendorfplatz (Berlin),2
de:11000:900056101::1,,U Wittenbergplatz (Berlin),U Bahnsteig Gleis 1 (U1+3),52.501927000000,13.343056000000,0,de:11000:900056101,0,,5555 U Wittenbergplatz (Berlin),3
de:11000:900056101::5,,U Wittenbergplatz (Berlin),U Bahnsteig Gleis 6 (U1),52.501606000000,13.342871000000,0,de:11000:900056101,0,,5555 U Wittenbergplatz (Berlin),3
de:11000:900023203::1,,U Kurfürstendamm (Berlin),U Bahnsteig Gleis 1 (oben),52.504056000000,13.332587000000,0,de:11000:900023203,0,,5555 U Kurfürstendamm (Berlin),2
de:11000:900023203::2,,U Kurfürstendamm (Berlin),U Bahnsteig Gleis 2 (oben),52.504021000000,13.332605000000,0,de:11000:900023203,0,,5555 U Kurfürstendamm (Berlin),2
de:11000:900023301::1,,U Uhlandstr. (Berlin),U Bahnsteig Gleis 1,52.502907000000,13.326947000000,0,de:11000:900023301,0,,5555 U Uhlandstr. (Berlin),2
de:11000:900023301::2,,U Uhlandstr. (Berlin),U Bahnsteig Gleis 2,52.502809000000,13.327015000000,0,de:11000:900023301,0,,5555 U Uhlandstr. (Berlin),2
de:11000:900130002::1,,S+U Pankow (Berlin),U-Bahnsteig Gleis 1,52.566740000000,13.411657000000,0,de:11000:900130002,0,,5656 S+U Pankow (Berlin),7
de:11000:900130002::2,,S+U Pankow (Berlin),U-Bahnsteig Gleis 2,52.566775000000,13.411811000000,0,de:11000:900130002,0,,5656 S+U Pankow (Berlin),7
de:11000:900130011::1,,U Vinetastr. (Berlin),U Bahnsteig Gleis 1,52.559182000000,13.413159000000,0,de:11000:900130011,0,,5656 U Vinetastr. (Berlin),3
de:11000:900130011::2,,U Vinetastr. (Berlin),U Bahnsteig Gleis 2,52.559185000000,13.413343000000,0,de:11000:900130011,0,,5656 U Vinetastr. (Berlin),3
de:11000:900110001::1,,S+U Schönhauser Allee (Berlin),Bahnsteig U-Bahn Gleis 1,52.549226000000,13.413598000000,0,de:11000:900110001,0,,5555 S+U Schönhauser Allee (Berlin),5
de:11000:900110001::2,,S+U Schönhauser Allee (Berlin),Bahnsteig U-Bahn Gleis 2,52.549218000000,13.413741000000,0,de:11000:900110001,0,,5555 S+U Schönhauser Allee (Berlin),5
de:11000:900110006::1,,U Eberswalder Str. (Berlin),U Bahnsteig Gleis 1,52.541988000000,13.412139000000,0,de:11000:900110006,0,,5555 U Eberswalder Str. (Berlin),1
de:11000:900110006::2,,U Eberswalder Str. (Berlin),U Bahnsteig Gleis 2,52.541982000000,13.412280000000,0,de:11000:900110006,0,,5555 U Eberswalder Str. (Berlin),1
de:11000:900110005::1,,U Senefelderplatz (Berlin),U Bahnsteig Gleis 1,52.532443000000,13.412596000000,0,de:11000:900110005,0,,5555 U Senefelderplatz (Berlin),2
de:11000:900110005::2,,U Senefelderplatz (Berlin),U Bahnsteig Gleis 2,52.532427000000,13.412787000000,0,de:11000:900110005,0,,5555 U Senefelderplatz (Berlin),2
de:11000:900100016::1,,U Rosa-Luxemburg-Platz (Berlin),U Bahnsteig Gleis 1,52.527701000000,13.410374000000,0,de:11000:900100016,0,,5555 U Rosa-Luxemburg-Platz (Berlin),2
de:11000:900100016::2,,U Rosa-Luxemburg-Platz (Berlin),U Bahnsteig Gleis 2,52.527725000000,13.410522000000,0,de:11000:900100016,0,,5555 U Rosa-Luxemburg-Platz (Berlin),2
de:11000:900100003::1,,S+U Alexanderplatz Bhf (Berlin),U-Bahn Gleis 1 (U2),52.521633000000,13.414011000000,0,de:11000:900100003,0,,5555 S+U Alexanderplatz Bhf (Berlin),12
de:11000:900100003::2,,S+U Alexanderplatz Bhf (Berlin),U-Bahn Gleis 2 (U2),52.521754000000,13.414250000000,0,de:11000:900100003,0,,5555 S+U Alexanderplatz Bhf (Berlin),12
de:11000:900100015::1,,U Klosterstr. (Berlin),U Bahnsteig Gleis 1,52.517186000000,13.412317000000,0,de:11000:900100015,0,,5555 U Klosterstr. (Berlin),3
de:11000:900100015::2,,U Klosterstr. (Berlin),U Bahnsteig Gleis 2,52.517208000000,13.412525000000,0,de:11000:900100015,0,,5555 U Klosterstr. (Berlin),3
de:11000:900100014::1,,U Märkisches Museum (Berlin),U Bahnsteig Gleis 1,52.512387000000,13.410151000000,0,de:11000:900100014,0,,5555 U Märkisches Museum (Berlin),3
de:11000:900100014::2,,U Märkisches Museum (Berlin),U Bahnsteig Gleis 2,52.512309000000,13.410213000000,0,de:11000:900100014,0,,5555 U Märkisches Museum (Berlin),3
de:11000:900100013::1,,U Spittelmarkt (Berlin),Bahnsteig U2 Gleis 1,52.511348000000,13.403697000000,0,de:11000:900100013,0,,5555 U Spittelmarkt (Berlin),2
de:11000:900100013::2,,U Spittelmarkt (Berlin),Bahnsteig U2 Gleis 2,52.511264000000,13.403695000000,0,de:11000:900100013,0,,5555 U Spittelmarkt (Berlin),2
de:11000:900100012::1,,U Hausvogteiplatz (Berlin),Bahnsteig U2 Gleis 1,52.513393000000,13.395562000000,0,de:11000:900100012,0,,5555 U Hausvogteiplatz (Berlin),2
de:11000:900100012::2,,U Hausvogteiplatz (Berlin),Bahnsteig U2 Gleis 2,52.513311000000,13.395536000000,0,de:11000:900100012,0,,5555 U Hausvogteiplatz (Berlin),2
de:11000:900100701::1,,U Stadtmitte (Berlin),U Bahnsteig Gleis 1,52.512199000000,13.390543000000,0,de:11000:900100011,0,,5555 U Stadtmitte (Berlin),2
de:11000:900100701::2,,U Stadtmitte (Berlin),U Bahnsteig Gleis 2,52.512114000000,13.390557000000,0,de:11000:900100011,0,,5555 U Stadtmitte (Berlin),2
de:11000:900100010::1,,U Mohrenstr. (Berlin),U Bahnsteig Gleis 1,52.511816000000,13.385110000000,0,de:11000:900100010,0,,5555 U Mohrenstr. (Berlin),2
de:11000:900100010::2,,U Mohrenstr. (Berlin),U Bahnsteig Gleis 2,52.511723000000,13.385135000000,0,de:11000:900100010,0,,5555 U Mohrenstr. (Berlin),2
de:11000:900100020::7,,S+U Potsdamer Platz Bhf (Berlin),U-Bahnsteig Gleis 1,52.509072000000,13.377905000000,0,de:11000:900100020,0,,5555 S+U Potsdamer Platz Bhf (Berlin),18
de:11000:900100020::8,,S+U Potsdamer Platz Bhf (Berlin),U-Bahnsteig Gleis 2,52.508998000000,13.378047000000,0,de:11000:900100020,0,,5555 S+U Potsdamer Platz Bhf (Berlin),18
de:11000:900005252::1,,U Mendelssohn-Bartholdy-Park (Berlin),U Bahnsteig Gleis 1,52.503806000000,13.374862000000,0,de:11000:900005252,0,,5555 U Mendelssohn-Bartholdy-Park (Berlin),25
de:11000:900005252::2,,U Mendelssohn-Bartholdy-Park (Berlin),Bahnsteig U2 Gleis 2,52.503800000000,13.374904000000,0,de:11000:900005252,0,,5555 U Mendelssohn-Bartholdy-Park (Berlin),25
de:11000:900017103::3,,U Gleisdreieck (Berlin),U Bahnsteig Gleis 1,52.499504000000,13.374061000000,0,de:11000:900017103,0,,5555 U Gleisdreieck (Berlin),5
de:11000:900017103::4,,U Gleisdreieck (Berlin),U Bahnsteig Gleis 2,52.499494000000,13.374295000000,0,de:11000:900017103,0,,5555 U Gleisdreieck (Berlin),5
de:11000:900056104::1,,U Bülowstr. (Berlin),U Bahnsteig Gleis 1,52.497620000000,13.363170000000,0,de:11000:900056104,0,,5555 U Bülowstr. (Berlin),5
de:11000:900056104::2,,U Bülowstr. (Berlin),U Bahnsteig Gleis 2,52.497575000000,13.363156000000,0,de:11000:900056104,0,,5555 U Bülowstr. (Berlin),5
de:11000:900056102::3,,U Nollendorfplatz (Berlin),U Bahnsteig Gleis 1,52.499388000000,13.354560000000,0,de:11000:900056102,0,,5555 U Nollendorfplatz (Berlin),1
de:11000:900056102::4,,U Nollendorfplatz (Berlin),U Bahnsteig Gleis 2,52.499369000000,13.354548000000,0,de:11000:900056102,0,,5555 U Nollendorfplatz (Berlin),1
de:11000:900056101::2,,U Wittenbergplatz (Berlin),U Bahnsteig Gleis 2 (U2),52.501792000000,13.342967000000,0,de:11000:900056101,0,,5555 U Wittenbergplatz (Berlin),3
de:11000:900056101::3,,U Wittenbergplatz (Berlin),U Bahnsteig Gleis 3 (U2),52.501850000000,13.343003000000,0,de:11000:900056101,0,,5555 U Wittenbergplatz (Berlin),3
de:11000:900023201::1,,S+U Zoologischer Garten Bhf (Berlin),U Bahnsteig Gleis 1 (U2),52.505941000000,13.333055000000,0,de:11000:900023201,0,,5555 S+U Zoologischer Garten Bhf (Berlin),7
de:11000:900023201::2,,S+U Zoologischer Garten Bhf (Berlin),U Bahnsteig Gleis 2 (U2),52.505905000000,13.333009000000,0,de:11000:900023201,0,,5555 S+U Zoologischer Garten Bhf (Berlin),7
de:11000:900023101::1,,U Ernst-Reuter-Platz (Berlin),Bahnsteig U2 Gleis 1,52.511784000000,13.322175000000,0,de:11000:900023101,0,,5555 U Ernst-Reuter-Platz (Berlin),2
de:11000:900023101::2,,U Ernst-Reuter-Platz (Berlin),Bahnsteig U2 Gleis 2,52.511744000000,13.322077000000,0,de:11000:900023101,0,,5555 U Ernst-Reuter-Platz (Berlin),2
de:11000:900022201::1,,U Deutsche Oper (Berlin),U2 Bahnsteig 1 Gleis 1,52.511944000000,13.310510000000,0,de:11000:900022201,0,,5555 U Deutsche Oper (Berlin),22
de:11000:900022201::2,,U Deutsche Oper (Berlin),U2 Bahnsteig 2 Gleis 2,52.511753000000,13.310546000000,0,de:11000:900022201,0,,5555 U Deutsche Oper (Berlin),22
de:11000:900022201::3,,U Deutsche Oper (Berlin),U2 Bahnsteig 2  Gleis 4,52.511815000000,13.310534000000,0,de:11000:900022201,0,,5555 U Deutsche Oper (Berlin),22
de:11000:900024201::1,,U Bismarckstr. (Berlin),U Bahnsteig U2 Gleis 1,52.511540000000,13.305122000000,0,de:11000:900024201,0,,5555 U Bismarckstr. (Berlin),2
de:11000:900024201::2,,U Bismarckstr. (Berlin),U Bahnsteig U2 Gleis 2,52.511478000000,13.305142000000,0,de:11000:900024201,0,,5555 U Bismarckstr. (Berlin),2
de:11000:900022101::1,,U Sophie-Charlotte-Platz (Berlin),U Bahnsteig Gleis 1,52.510895000000,13.295820000000,0,de:11000:900022101,0,,5555 U Sophie-Charlotte-Platz (Berlin),2
de:11000:900022101::2,,U Sophie-Charlotte-Platz (Berlin),U Bahnsteig Gleis 2,52.510851000000,13.295832000000,0,de:11000:900022101,0,,5555 U Sophie-Charlotte-Platz (Berlin),2
de:11000:900026202::1,,U Kaiserdamm (Berlin),U Bahnsteig Gleis 1,52.510113000000,13.283103000000,0,de:11000:900026202,0,,5555 U Kaiserdamm (Berlin),22
de:11000:900026202::2,,U Kaiserdamm (Berlin),U Bahnsteig Gleis 2,52.510059000000,13.283103000000,0,de:11000:900026202,0,,5555 U Kaiserdamm (Berlin),22
de:11000:900026201::1,,U Theodor-Heuss-Platz (Berlin),U Bahnsteig Gleis 1,52.509920000000,13.272617000000,0,de:11000:900026201,0,,5656 U Theodor-Heuss-Platz (Berlin),2
de:11000:900026201::2,,U Theodor-Heuss-Platz (Berlin),U Bahnsteig Gleis 2,52.509866000000,13.272588000000,0,de:11000:900026201,0,,5656 U Theodor-Heuss-Platz (Berlin),2
de:11000:900026101::1,,U Neu-Westend (Berlin),U-Bahnsteig Gleis 1,52.516281000000,13.259258000000,0,de:11000:900026101,0,,5656 U Neu-Westend (Berlin),2
de:11000:900026101::2,,U Neu-Westend (Berlin),U-Bahnsteig Gleis 2,52.516200000000,13.259241000000,0,de:11000:900026101,0,,5656 U Neu-Westend (Berlin),2
de:11000:900025203::1,,U Olympia-Stadion (Berlin),U Bahnsteig U2 Gleis 1,52.516957000000,13.250669000000,0,de:11000:900025203,0,,5656 U Olympia-Stadion (Berlin),66
de:11000:900025203::2,,U Olympia-Stadion (Berlin),U Bahnsteig U2 Gleis 2,52.516819000000,13.250453000000,0,de:11000:900025203,0,,5656 U Olympia-Stadion (Berlin),66
de:11000:900025203::3,,U Olympia-Stadion (Berlin),U Bahnsteig U2 Gleis 3,52.516862000000,13.250543000000,0,de:11000:900025203,0,,5656 U Olympia-Stadion (Berlin),66
de:11000:900025202::2,,U Ruhleben (Berlin),U Bahnsteig Gleis 2,52.525594000000,13.241270000000,0,de:11000:900025202,0,,5656 U Ruhleben (Berlin),24
de:11000:900056101::4,,U Wittenbergplatz (Berlin),U Bahnsteig Gleis 4 (U3),52.501711000000,13.342926000000,0,de:11000:900056101,0,,5555 U Wittenbergplatz (Berlin),3
de:11000:900023202::1,,U Augsburger Str. (Berlin),U Bahnsteig Gleis 1,52.500386000000,13.336350000000,0,de:11000:900023202,0,,5555 U Augsburger Str. (Berlin),2
de:11000:900023202::2,,U Augsburger Str. (Berlin),U Bahnsteig Gleis 2,52.500362000000,13.336425000000,0,de:11000:900023202,0,,5555 U Augsburger Str. (Berlin),2
de:11000:900042101::1,,U Spichernstr. (Berlin),U Bahnsteig Gleis 1 (oben),52.496901000000,13.331995000000,0,de:11000:900042101,0,,5555 U Spichernstr. (Berlin),2
de:11000:900042101::2,,U Spichernstr. (Berlin),U Bahnsteig Gleis 2 (oben),52.496860000000,13.332072000000,0,de:11000:900042101,0,,5555 U Spichernstr. (Berlin),2
de:11000:900043101::1,,U Hohenzollernplatz (Berlin),U Bahnsteig Gleis 1,52.494188000000,13.324858000000,0,de:11000:900043101,0,,5555 U Hohenzollernplatz (Berlin),2
de:11000:900043101::2,,U Hohenzollernplatz (Berlin),U Bahnsteig Gleis 2,52.494095000000,13.324950000000,0,de:11000:900043101,0,,5555 U Hohenzollernplatz (Berlin),2
de:11000:900041101::1,,U Fehrbelliner Platz (Berlin),U Bahnsteig Gleis 1 (oben),52.490681000000,13.315228000000,0,de:11000:900041101,0,,5555 U Fehrbelliner Platz (Berlin),3
de:11000:900041101::2,,U Fehrbelliner Platz (Berlin),U Bahnsteig Gleis 2 (oben),52.490597000000,13.315394000000,0,de:11000:900041101,0,,5555 U Fehrbelliner Platz (Berlin),3
de:11000:900045102::1,,S+U Heidelberger Platz (Berlin),Bahnsteig 1,52.480250000000,13.313117000000,0,de:11000:900045102,0,,5555 S+U Heidelberger Platz (Berlin),79
de:11000:900045102::2,,S+U Heidelberger Platz (Berlin),Bahnsteig 2,52.480227000000,13.313224000000,0,de:11000:900045102,0,,5555 S+U Heidelberger Platz (Berlin),79
de:11000:900045101::1,,U Rüdesheimer Platz (Berlin),U Bahnsteig Gleis 1,52.473373000000,13.314366000000,0,de:11000:900045101,0,,5656 U Rüdesheimer Platz (Berlin),2
de:11000:900045101::2,,U Rüdesheimer Platz (Berlin),U Bahnsteig Gleis 2,52.473372000000,13.314500000000,0,de:11000:900045101,0,,5656 U Rüdesheimer Platz (Berlin),2
de:11000:900051202::1,,U Breitenbachplatz (Berlin),U Bahnsteig Gleis 1,52.467012000000,13.308733000000,0,de:11000:900051202,0,,5656 U Breitenbachplatz (Berlin),2
de:11000:900051202::2,,U Breitenbachplatz (Berlin),U Bahnsteig Gleis 2,52.466946000000,13.308834000000,0,de:11000:900051202,0,,5656 U Breitenbachplatz (Berlin),2
de:11000:900051302::1,,U Podbielskiallee (Berlin),U Bahnsteig Gleis 1,52.464067000000,13.295480000000,0,de:11000:900051302,0,,5656 U Podbielskiallee (Berlin),2
de:11000:900051302::2,,U Podbielskiallee (Berlin),U Bahnsteig Gleis 2,52.463981000000,13.295567000000,0,de:11000:900051302,0,,5656 U Podbielskiallee (Berlin),2
de:11000:900051303::1,,U Dahlem-Dorf (Berlin),Bahnsteig U3 Gleis 1,52.457164000000,13.289407000000,0,de:11000:900051303,0,,5656 U Dahlem-Dorf (Berlin),2
de:11000:900051303::2,,U Dahlem-Dorf (Berlin),Bahnsteig U3 Gleis 2,52.457115000000,13.289535000000,0,de:11000:900051303,0,,5656 U Dahlem-Dorf (Berlin),2
de:11000:900051201::1,,U Freie Universität (Thielplatz) (Berlin),Bahnsteig U3 Gleis 1,52.451041000000,13.281602000000,0,de:11000:900051201,0,,5656 U Freie Universität (Thielplatz) (Berlin),2
de:11000:900051201::2,,U Freie Universität (Thielplatz) (Berlin),Bahnsteig U3 Gleis 2,52.450960000000,13.281692000000,0,de:11000:900051201,0,,5656 U Freie Universität (Thielplatz) (Berlin),2
de:11000:900051301::1,,U Oskar-Helene-Heim (Berlin),U Bahnsteig Gleis 1,52.450412000000,13.268979000000,0,de:11000:900051301,0,,5656 U Oskar-Helene-Heim (Berlin),2
de:11000:900051301::2,,U Oskar-Helene-Heim (Berlin),U Bahnsteig Gleis 2,52.450312000000,13.268954000000,0,de:11000:900051301,0,,5656 U Oskar-Helene-Heim (Berlin),2
de:11000:900050282::1,,U Onkel Toms Hütte (Berlin),Bahnsteig U3 Gleis 1,52.449928000000,13.253036000000,0,de:11000:900050282,0,,5656 U Onkel Toms Hütte (Berlin),2
de:11000:900050282::2,,U Onkel Toms Hütte (Berlin),Bahnsteig U3 Gleis 2,52.449820000000,13.253110000000,0,de:11000:900050282,0,,5656 U Onkel Toms Hütte (Berlin),2
de:11000:900050201::2,,U Krumme Lanke (Berlin),Bahnsteig U3 Gleis 2,52.443519000000,13.241613000000,0,de:11000:900050201,0,,5656 U Krumme Lanke (Berlin),2
de:11000:900056102::5,,U Nollendorfplatz (Berlin),U Bahnsteig Gleis 3 (unten),52.499849000000,13.354710000000,0,de:11000:900056102,0,,5555 U Nollendorfplatz (Berlin),3
de:11000:900056102::6,,U Nollendorfplatz (Berlin),U Bahnsteig Gleis 4 (mitte),52.499837000000,13.354616000000,0,de:11000:900056102,0,,5555 U Nollendorfplatz (Berlin),2
de:11000:900055101::1,,U Viktoria-Luise-Platz (Berlin),U Bahnsteig Gleis 1,52.496288000000,13.343380000000,0,de:11000:900055101,0,,5555 U Viktoria-Luise-Platz (Berlin),2
de:11000:900055101::2,,U Viktoria-Luise-Platz (Berlin),U Bahnsteig Gleis 2,52.496208000000,13.343461000000,0,de:11000:900055101,0,,5555 U Viktoria-Luise-Platz (Berlin),2
de:11000:900055102::1,,U Bayerischer Platz (Berlin),U Bahnsteig Gleis 1,52.489145000000,13.340214000000,0,de:11000:900055102,0,,5555 U Bayerischer Platz (Berlin),3
de:11000:900055102::2,,U Bayerischer Platz (Berlin),U Bahnsteig Gleis 2,52.489135000000,13.340387000000,0,de:11000:900055102,0,,5555 U Bayerischer Platz (Berlin),3
de:11000:900054101::1,,U Rathaus Schöneberg (Berlin),U Bahnsteig Gleis 1,52.483032000000,13.341946000000,0,de:11000:900054101,0,,5555 U Rathaus Schöneberg (Berlin),2
de:11000:900054101::2,,U Rathaus Schöneberg (Berlin),U Bahnsteig Gleis 2,52.483055000000,13.342094000000,0,de:11000:900054101,0,,5555 U Rathaus Schöneberg (Berlin),2
de:11000:900054105::1,,S+U Innsbrucker Platz (Berlin),U Bahnsteig Gleis 2,52.479262000000,13.343623000000,0,de:11000:900054105,0,,5555 S+U Innsbrucker Platz (Berlin),77
de:11000:900175010::1,,U Hönow (Berlin),U Bahnsteig Gleis 1,52.538482000000,13.633161000000,0,de:11000:900175010,0,,5656 U Hönow (Berlin),50
de:11000:900175010::2,,U Hönow (Berlin),U Bahnsteig Gleis 2,52.538373000000,13.633103000000,0,de:11000:900175010,0,,5656 U Hönow (Berlin),50
de:11000:900175010::3,,U Hönow (Berlin),U Bahnsteig Gleis 3,52.538309000000,13.633125000000,0,de:11000:900175010,0,,5656 U Hönow (Berlin),50
de:11000:900175015::1,,U Louis-Lewin-Str. (Berlin),U Bahnsteig Gleis 1,52.539037000000,13.618307000000,0,de:11000:900175015,0,,5656 U Louis-Lewin-Str. (Berlin),49
de:11000:900175015::2,,U Louis-Lewin-Str. (Berlin),U Bahnsteig Gleis 2,52.538907000000,13.618353000000,0,de:11000:900175015,0,,5656 U Louis-Lewin-Str. (Berlin),49
de:11000:900175007::1,,U Hellersdorf (Berlin),U Bahnsteig Gleis 1,52.536737000000,13.606564000000,0,de:11000:900175007,0,,5656 U Hellersdorf (Berlin),3
de:11000:900175007::2,,U Hellersdorf (Berlin),U Bahnsteig Gleis 2,52.536600000000,13.606671000000,0,de:11000:900175007,0,,5656 U Hellersdorf (Berlin),3
de:11000:900175006::1,,U Cottbusser Platz (Berlin),U Bahnsteig Gleis 1,52.533918000000,13.596460000000,0,de:11000:900175006,0,,5656 U Cottbusser Platz (Berlin),5
de:11000:900175006::2,,U Cottbusser Platz (Berlin),U Bahnsteig Gleis 2,52.533812000000,13.596530000000,0,de:11000:900175006,0,,5656 U Cottbusser Platz (Berlin),5
de:11000:900175005::1,,U Kienberg (Gärten der Welt) (Berlin),U Bahnsteig Gleis 1,52.528538000000,13.590471000000,0,de:11000:900175005,0,,5656 U Kienberg (Gärten der Welt) (Berlin),3
de:11000:900175005::2,,U Kienberg (Gärten der Welt) (Berlin),U Bahnsteig Gleis 2,52.528495000000,13.590653000000,0,de:11000:900175005,0,,5656 U Kienberg (Gärten der Welt) (Berlin),3
de:11000:900175004::1,,U Kaulsdorf-Nord (Berlin),U Bahnsteig Gleis 1,52.520904000000,13.588849000000,0,de:11000:900175004,0,,5656 U Kaulsdorf-Nord (Berlin),55
de:11000:900175004::2,,U Kaulsdorf-Nord (Berlin),U Bahnsteig Gleis 2,52.520912000000,13.589057000000,0,de:11000:900175004,0,,5656 U Kaulsdorf-Nord (Berlin),55
de:11000:900175001::1,,S+U Wuhletal (Berlin),U Bahnsteig Gleis 1,52.512626000000,13.575194000000,0,de:11000:900175001,0,,5656 S+U Wuhletal (Berlin),25
de:11000:900175001::2,,S+U Wuhletal (Berlin),U Bahnsteig Gleis 2,52.512595000000,13.575190000000,0,de:11000:900175001,0,,5656 S+U Wuhletal (Berlin),25
de:11000:900171006::1,,U Elsterwerdaer Platz (Berlin),U-Bahnsteig Gleis 1,52.504979000000,13.560296000000,0,de:11000:900171006,0,,5656 U Elsterwerdaer Platz (Berlin),58
de:11000:900171006::2,,U Elsterwerdaer Platz (Berlin),U-Bahnsteig Gleis 2,52.504900000000,13.560446000000,0,de:11000:900171006,0,,5656 U Elsterwerdaer Platz (Berlin),58
de:11000:900171005::1,,U Biesdorf-Süd (Berlin),U Bahnsteig Gleis 1,52.499662000000,13.546365000000,0,de:11000:900171005,0,,5656 U Biesdorf-Süd (Berlin),62
de:11000:900171005::2,,U Biesdorf-Süd (Berlin),U Bahnsteig Gleis 2,52.499498000000,13.546477000000,0,de:11000:900171005,0,,5656 U Biesdorf-Süd (Berlin),62
de:11000:900171005::3,,U Biesdorf-Süd (Berlin),U Bahnsteig Gleis 3,52.499625000000,13.546389000000,0,de:11000:900171005,0,,5656 U Biesdorf-Süd (Berlin),62
de:11000:900161002::3,,U Tierpark (Berlin),U Bahnsteig Gleis 1,52.497760000000,13.523072000000,0,de:11000:900161002,0,,5656 U Tierpark (Berlin),3
de:11000:900161002::4,,U Tierpark (Berlin),U Bahnsteig Gleis 2,52.497708000000,13.522847000000,0,de:11000:900161002,0,,5656 U Tierpark (Berlin),3
de:11000:900161512::1,,U Friedrichsfelde (Berlin),U Bahnsteig Gleis 1,52.506252000000,13.512845000000,0,de:11000:900161512,0,,5656 U Friedrichsfelde (Berlin),2
de:11000:900161512::2,,U Friedrichsfelde (Berlin),U Bahnsteig Gleis 2,52.506188000000,13.512693000000,0,de:11000:900161512,0,,5656 U Friedrichsfelde (Berlin),2
de:11000:900160004::7,,S+U Lichtenberg Bhf (Berlin),U-Bahnsteig Gleis 1,52.511218000000,13.498342000000,0,de:11000:900160004,0,,5656 S+U Lichtenberg Bhf (Berlin),100
de:11000:900160004::8,,S+U Lichtenberg Bhf (Berlin),U-Bahnsteig Gleis 2,52.511115000000,13.498291000000,0,de:11000:900160004,0,,5656 S+U Lichtenberg Bhf (Berlin),100
de:11000:900160005::1,,U Magdalenenstr. (Berlin),U Bahnsteig Gleis 1,52.512532000000,13.486997000000,0,de:11000:900160005,0,,5656 U Magdalenenstr. (Berlin),3
de:11000:900160005::2,,U Magdalenenstr. (Berlin),U Bahnsteig Gleis 2,52.512410000000,13.486975000000,0,de:11000:900160005,0,,5656 U Magdalenenstr. (Berlin),3
de:11000:900120001::1,,S+U Frankfurter Allee (Berlin),U Bahnsteig Gleis 1,52.513761000000,13.475215000000,0,de:11000:900120001,0,,5555 S+U Frankfurter Allee (Berlin),98
de:11000:900120001::2,,S+U Frankfurter Allee (Berlin),U Bahnsteig Gleis 2,52.513604000000,13.475178000000,0,de:11000:900120001,0,,5555 S+U Frankfurter Allee (Berlin),98
de:11000:900120009::1,,U Samariterstr. (Berlin),U Bahnsteig Gleis 1,52.514787000000,13.464537000000,0,de:11000:900120009,0,,5555 U Samariterstr. (Berlin),3
de:11000:900120009::2,,U Samariterstr. (Berlin),U Bahnsteig Gleis 2,52.514675000000,13.464507000000,0,de:11000:900120009,0,,5555 U Samariterstr. (Berlin),3
de:11000:900120008::1,,U Frankfurter Tor (Berlin),U Bahnsteig Gleis 1,52.515872000000,13.453903000000,0,de:11000:900120008,0,,5555 U Frankfurter Tor (Berlin),22
de:11000:900120008::2,,U Frankfurter Tor (Berlin),U Bahnsteig Gleis 2,52.515755000000,13.453871000000,0,de:11000:900120008,0,,5555 U Frankfurter Tor (Berlin),22
de:11000:900120025::1,,U Weberwiese (Berlin),U Bahnsteig Gleis 1,52.516804000000,13.444683000000,0,de:11000:900120025,0,,5555 U Weberwiese (Berlin),3
de:11000:900120025::2,,U Weberwiese (Berlin),U Bahnsteig Gleis 2,52.516688000000,13.444657000000,0,de:11000:900120025,0,,5555 U Weberwiese (Berlin),3
de:11000:900120006::1,,U Strausberger Platz (Berlin),U Bahnsteig Gleis 1,52.518144000000,13.431554000000,0,de:11000:900120006,0,,5555 U Strausberger Platz (Berlin),22
de:11000:900120006::2,,U Strausberger Platz (Berlin),U Bahnsteig Gleis 2,52.518055000000,13.431530000000,0,de:11000:900120006,0,,5555 U Strausberger Platz (Berlin),22
de:11000:900100017::1,,U Schillingstr. (Berlin),U Bahnsteig Gleis 1,52.520931000000,13.420841000000,0,de:11000:900100017,0,,5555 U Schillingstr. (Berlin),22
de:11000:900100017::2,,U Schillingstr. (Berlin),U Bahnsteig Gleis 2,52.520847000000,13.420768000000,0,de:11000:900100017,0,,5555 U Schillingstr. (Berlin),22
de:11000:900100003::3,,S+U Alexanderplatz Bhf (Berlin),U-Bahn Gleis 1 (U5),52.521488000000,13.413583000000,0,de:11000:900100003,0,,5555 S+U Alexanderplatz Bhf (Berlin),14
de:11000:900100003::4,,S+U Alexanderplatz Bhf (Berlin),U-Bahn Gleis 2 (U5),52.521448000000,13.413646000000,0,de:11000:900100003,0,,5555 S+U Alexanderplatz Bhf (Berlin),14
de:11000:900100025::1,,S+U Brandenburger Tor (Berlin),U Bahnsteig Gleis 1,52.516644000000,13.380981000000,0,de:11000:900100025,0,,5555 S+U Brandenburger Tor (Berlin),130
de:11000:900003254::1,,U Bundestag (Berlin),U Bahnsteig Gleis 1,52.520156000000,13.373086000000,0,de:11000:900003254,0,,5555 U Bundestag (Berlin),124
de:11000:900003201::1,,S+U Berlin Hauptbahnhof,U Bahnsteig Gleis 1,52.525290000000,13.370260000000,0,de:11000:900003201,0,,5555 S+U Berlin Hauptbahnhof,3
de:11000:900086102::1,,U Kurt-Schumacher-Platz (Berlin),U Bahnsteig Gleis 1,52.563206000000,13.327032000000,0,de:11000:900086102,0,,5656 U Kurt-Schumacher-Platz (Berlin),3
de:11000:900086102::2,,U Kurt-Schumacher-Platz (Berlin),U Bahnsteig Gleis 2,52.563292000000,13.327087000000,0,de:11000:900086102,0,,5656 U Kurt-Schumacher-Platz (Berlin),3
de:11000:900011102::1,,U Afrikanische Str. (Berlin),U Bahnsteig Gleis 1,52.560199000000,13.334557000000,0,de:11000:900011102,0,,5656 U Afrikanische Str. (Berlin),3
de:11000:900011102::2,,U Afrikanische Str. (Berlin),U Bahnsteig Gleis 2,52.560271000000,13.334667000000,0,de:11000:900011102,0,,5656 U Afrikanische Str. (Berlin),3
de:11000:900011101::1,,U Rehberge (Berlin),U Bahnsteig Gleis 1,52.556593000000,13.340990000000,0,de:11000:900011101,0,,5656 U Rehberge (Berlin),3
de:11000:900011101::2,,U Rehberge (Berlin),U Bahnsteig Gleis 2,52.556638000000,13.341060000000,0,de:11000:900011101,0,,5656 U Rehberge (Berlin),3
de:11000:900009103::1,,U Seestr. (Berlin),U Bahnsteig Gleis 1,52.549731000000,13.353007000000,0,de:11000:900009103,0,,5656 U Seestr. (Berlin),2
de:11000:900009103::2,,U Seestr. (Berlin),U Bahnsteig Gleis 2,52.549813000000,13.353142000000,0,de:11000:900009103,0,,5656 U Seestr. (Berlin),2
de:11000:900009102::1,,U Leopoldplatz (Berlin),U Bahnsteig Gleis 1 (oben),52.546389000000,13.359121000000,0,de:11000:900009102,0,,5656 U Leopoldplatz (Berlin),3
de:11000:900009102::2,,U Leopoldplatz (Berlin),U Bahnsteig Gleis 2 (oben),52.546419000000,13.359163000000,0,de:11000:900009102,0,,5656 U Leopoldplatz (Berlin),3
de:11000:900009104::1,,S+U Wedding (Berlin),U Bahnsteig Gleis 1,52.543028000000,13.364987000000,0,de:11000:900009104,0,,5555 S+U Wedding (Berlin),2
de:11000:900009104::2,,S+U Wedding (Berlin),U Bahnsteig Gleis 2,52.543092000000,13.365090000000,0,de:11000:900009104,0,,5555 S+U Wedding (Berlin),2
de:11000:900008102::1,,U Reinickendorfer Str. (Berlin),U Bahnsteig Gleis 1,52.540046000000,13.370176000000,0,de:11000:900008102,0,,5555 U Reinickendorfer Str. (Berlin),3
de:11000:900008102::2,,U Reinickendorfer Str. (Berlin),U Bahnsteig Gleis 2,52.540096000000,13.370265000000,0,de:11000:900008102,0,,5555 U Reinickendorfer Str. (Berlin),3
de:11000:900100501::1,,U Schwartzkopffstr. (Berlin),U Bahnsteig Gleis 1,52.535449000000,13.376863000000,0,de:11000:900100501,0,,5555 U Schwartzkopffstr. (Berlin),2
de:11000:900100501::2,,U Schwartzkopffstr. (Berlin),U Bahnsteig Gleis 2,52.535500000000,13.376986000000,0,de:11000:900100501,0,,5555 U Schwartzkopffstr. (Berlin),2
de:11000:900100009::1,,U Naturkundemuseum (Berlin),U Bahnsteig Gleis 1,52.531269000000,13.382101000000,0,de:11000:900100009,0,,5555 U Naturkundemuseum (Berlin),2
de:11000:900100009::2,,U Naturkundemuseum (Berlin),U Bahnsteig Gleis 2,52.531322000000,13.382214000000,0,de:11000:900100009,0,,5555 U Naturkundemuseum (Berlin),2
de:11000:900100019::1,,U Oranienburger Tor (Berlin),Bahnsteig U6 Gleis 1,52.525545000000,13.387314000000,0,de:11000:900100019,0,,5555 U Oranienburger Tor (Berlin),2
de:11000:900100019::2,,U Oranienburger Tor (Berlin),U Bahnsteig Gleis 2,52.525551000000,13.387428000000,0,de:11000:900100019,0,,5555 U Oranienburger Tor (Berlin),2
de:11000:900100001::1,,S+U Friedrichstr. Bhf (Berlin),U-Bahnsteig Gleis 1,52.520265000000,13.388196000000,0,de:11000:900100001,0,,5555 S+U Friedrichstr. Bhf (Berlin),22
de:11000:900100001::2,,S+U Friedrichstr. Bhf (Berlin),U-Bahnsteig Gleis 2,52.520269000000,13.388335000000,0,de:11000:900100001,0,,5555 S+U Friedrichstr. Bhf (Berlin),22
de:11000:900100011::1,,U Stadtmitte (Berlin),U Bahnsteig Gleis 1,52.510236000000,13.389841000000,0,de:11000:900100011,0,,5555 U Stadtmitte (Berlin),3
de:11000:900100011::2,,U Stadtmitte (Berlin),U Bahnsteig Gleis 2,52.510246000000,13.389981000000,0,de:11000:900100011,0,,5555 U Stadtmitte (Berlin),3
de:11000:900012102::1,,U Kochstr./Checkpoint Charlie (Berlin),U Bahnsteig Gleis 1,52.506032000000,13.390528000000,0,de:11000:900012102,0,,5555 U Kochstr./Checkpoint Charlie (Berlin),2
de:11000:900012102::2,,U Kochstr./Checkpoint Charlie (Berlin),U Bahnsteig Gleis 2,52.506044000000,13.390689000000,0,de:11000:900012102,0,,5555 U Kochstr./Checkpoint Charlie (Berlin),2
de:11000:900012103::3,,U Hallesches Tor (Berlin),Bahnsteig U6 Gleis 1,52.498999000000,13.391628000000,0,de:11000:900012103,0,,5555 U Hallesches Tor (Berlin),22
de:11000:900012103::4,,U Hallesches Tor (Berlin),Bahnsteig U6 Gleis 2,52.499006000000,13.391805000000,0,de:11000:900012103,0,,5555 U Hallesches Tor (Berlin),22
de:11000:900017101::1,,U Mehringdamm (Berlin),U Bahnsteig Gleis 1,52.494625000000,13.388864000000,0,de:11000:900017101,0,,5555 U Mehringdamm (Berlin),3
de:11000:900017101::2,,U Mehringdamm (Berlin),U Bahnsteig Gleis 2,52.494542000000,13.389109000000,0,de:11000:900017101,0,,5555 U Mehringdamm (Berlin),3
de:11000:900017102::1,,U Platz der Luftbrücke (Berlin),U Bahnsteig Gleis 1,52.485948000000,13.385808000000,0,de:11000:900017102,0,,5555 U Platz der Luftbrücke (Berlin),3
de:11000:900017102::2,,U Platz der Luftbrücke (Berlin),U Bahnsteig Gleis 2,52.485946000000,13.385970000000,0,de:11000:900017102,0,,5555 U Platz der Luftbrücke (Berlin),3
de:11000:900068101::1,,U Paradestr. (Berlin),U Bahnsteig Gleis 1,52.478191000000,13.386172000000,0,de:11000:900068101,0,,5555 U Paradestr. (Berlin),3
de:11000:900068101::2,,U Paradestr. (Berlin),U Bahnsteig Gleis 2,52.478191000000,13.386375000000,0,de:11000:900068101,0,,5555 U Paradestr. (Berlin),3
de:11000:900068201::1,,S+U Tempelhof (Berlin),U Bahnsteig Gleis 1,52.469814000000,13.385515000000,0,de:11000:900068201,0,,5555 S+U Tempelhof (Berlin),76
de:11000:900068201::2,,S+U Tempelhof (Berlin),U Bahnsteig Gleis 2,52.469819000000,13.385692000000,0,de:11000:900068201,0,,5555 S+U Tempelhof (Berlin),76
de:11000:900068202::1,,U Alt-Tempelhof (Berlin),U Bahnsteig Gleis 1,52.465382000000,13.385580000000,0,de:11000:900068202,0,,5656 U Alt-Tempelhof (Berlin),3
de:11000:900068202::2,,U Alt-Tempelhof (Berlin),U Bahnsteig Gleis 2,52.465382000000,13.385719000000,0,de:11000:900068202,0,,5656 U Alt-Tempelhof (Berlin),3
de:11000:900068302::1,,U Kaiserin-Augusta-Str. (Berlin),U Bahnsteig Gleis 1,52.459982000000,13.384567000000,0,de:11000:900068302,0,,5656 U Kaiserin-Augusta-Str. (Berlin),3
de:11000:900068302::2,,U Kaiserin-Augusta-Str. (Berlin),U Bahnsteig Gleis 2,52.459971000000,13.384701000000,0,de:11000:900068302,0,,5656 U Kaiserin-Augusta-Str. (Berlin),3
de:11000:900069271::1,,U Ullsteinstr. (Berlin),U Bahnsteig Gleis 1,52.453741000000,13.384397000000,0,de:11000:900069271,0,,5656 U Ullsteinstr. (Berlin),3
de:11000:900069271::2,,U Ullsteinstr. (Berlin),U Bahnsteig Gleis 2,52.453757000000,13.384546000000,0,de:11000:900069271,0,,5656 U Ullsteinstr. (Berlin),3
de:11000:900070101::1,,U Westphalweg (Berlin),U Bahnsteig Gleis 1,52.446268000000,13.385619000000,0,de:11000:900070101,0,,5656 U Westphalweg (Berlin),76
de:11000:900070101::2,,U Westphalweg (Berlin),U Bahnsteig Gleis 2,52.446275000000,13.385757000000,0,de:11000:900070101,0,,5656 U Westphalweg (Berlin),76
de:11000:900070301::1,,U Alt-Mariendorf (Berlin),U Bahnsteig Gleis 1,52.439865000000,13.387371000000,0,de:11000:900070301,0,,5656 U Alt-Mariendorf (Berlin),3
de:11000:900070301::2,,U Alt-Mariendorf (Berlin),U Bahnsteig Gleis 2,52.439884000000,13.387543000000,0,de:11000:900070301,0,,5656 U Alt-Mariendorf (Berlin),3
de:11000:900029302::1,,S+U Rathaus Spandau (Berlin),U-Bahnsteig Gleis 1,52.535176000000,13.199857000000,0,de:11000:900029302,0,,5656 S+U Rathaus Spandau (Berlin),3
de:11000:900029302::2,,S+U Rathaus Spandau (Berlin),U-Bahnsteig Gleis 2,52.535188000000,13.199712000000,0,de:11000:900029302,0,,5656 S+U Rathaus Spandau (Berlin),3
de:11000:900029301::1,,U Altstadt Spandau (Berlin),U Bahnsteig Gleis 1,52.538755000000,13.206326000000,0,de:11000:900029301,0,,5656 U Altstadt Spandau (Berlin),22
de:11000:900029301::2,,U Altstadt Spandau (Berlin),U Bahnsteig Gleis 2,52.538890000000,13.206436000000,0,de:11000:900029301,0,,5656 U Altstadt Spandau (Berlin),22
de:11000:900033101::1,,U Zitadelle (Berlin),U Bahnsteig Gleis 1,52.537627000000,13.217515000000,0,de:11000:900033101,0,,5656 U Zitadelle (Berlin),3
de:11000:900033101::2,,U Zitadelle (Berlin),U Bahnsteig Gleis 2,52.537676000000,13.217555000000,0,de:11000:900033101,0,,5656 U Zitadelle (Berlin),3
de:11000:900034102::1,,U Haselhorst (Berlin),U Bahnsteig Gleis 1,52.538635000000,13.233127000000,0,de:11000:900034102,0,,5656 U Haselhorst (Berlin),3
de:11000:900034102::2,,U Haselhorst (Berlin),U Bahnsteig Gleis 2,52.538793000000,13.233056000000,0,de:11000:900034102,0,,5656 U Haselhorst (Berlin),3
de:11000:900034101::1,,U Paulsternstr. (Berlin),U Bahnsteig Gleis 1,52.537931000000,13.247534000000,0,de:11000:900034101,0,,5656 U Paulsternstr. (Berlin),3
de:11000:900034101::2,,U Paulsternstr. (Berlin),U Bahnsteig Gleis 2,52.538058000000,13.247559000000,0,de:11000:900034101,0,,5656 U Paulsternstr. (Berlin),3
de:11000:900036101::1,,U Rohrdamm (Berlin),U Bahnsteig Gleis 1,52.536926000000,13.262347000000,0,de:11000:900036101,0,,5656 U Rohrdamm (Berlin),3
de:11000:900036101::2,,U Rohrdamm (Berlin),U Bahnsteig Gleis 2,52.537050000000,13.262367000000,0,de:11000:900036101,0,,5656 U Rohrdamm (Berlin),3
de:11000:900035101::1,,U Siemensdamm (Berlin),U Bahnsteig Gleis 1,52.536699000000,13.272710000000,0,de:11000:900035101,0,,5656 U Siemensdamm (Berlin),3
de:11000:900035101::2,,U Siemensdamm (Berlin),U Bahnsteig Gleis 2,52.536811000000,13.272694000000,0,de:11000:900035101,0,,5656 U Siemensdamm (Berlin),3
de:11000:900018102::1,,U Halemweg (Berlin),U Bahnsteig Gleis 1,52.536571000000,13.286271000000,0,de:11000:900018102,0,,5656 U Halemweg (Berlin),2
de:11000:900018102::2,,U Halemweg (Berlin),U Bahnsteig Gleis 2,52.536684000000,13.286264000000,0,de:11000:900018102,0,,5656 U Halemweg (Berlin),2
de:11000:900018101::1,,U Jakob-Kaiser-Platz (Berlin),U Bahnsteig Gleis 1,52.536186000000,13.293646000000,0,de:11000:900018101,0,,5656 U Jakob-Kaiser-Platz (Berlin),22
de:11000:900018101::2,,U Jakob-Kaiser-Platz (Berlin),U Bahnsteig Gleis 2,52.536296000000,13.293668000000,0,de:11000:900018101,0,,5656 U Jakob-Kaiser-Platz (Berlin),22
de:11000:900020201::1,,S+U Jungfernheide Bhf (Berlin),U-Bahnsteig Gleis 1 (oben),52.530790000000,13.300631000000,0,de:11000:900020201,0,,5555 S+U Jungfernheide Bhf (Berlin),83
de:11000:900020201::2,,S+U Jungfernheide Bhf (Berlin),U-Bahnsteig Gleis 2 (unten),52.530749000000,13.300635000000,0,de:11000:900020201,0,,5555 S+U Jungfernheide Bhf (Berlin),84
de:11000:900019204::1,,U Mierendorffplatz (Berlin),U Bahnsteig Gleis 1,52.526226000000,13.304790000000,0,de:11000:900019204,0,,5555 U Mierendorffplatz (Berlin),22
de:11000:900019204::2,,U Mierendorffplatz (Berlin),U Bahnsteig Gleis 2,52.526297000000,13.304975000000,0,de:11000:900019204,0,,5555 U Mierendorffplatz (Berlin),22
de:11000:900022202::1,,U Richard-Wagner-Platz (Berlin),U Bahnsteig Gleis 1,52.516645000000,13.306512000000,0,de:11000:900022202,0,,5555 U Richard-Wagner-Platz (Berlin),3
de:11000:900022202::2,,U Richard-Wagner-Platz (Berlin),U Bahnsteig Gleis 2,52.516650000000,13.306699000000,0,de:11000:900022202,0,,5555 U Richard-Wagner-Platz (Berlin),3
de:11000:900024201::3,,U Bismarckstr. (Berlin),U Bahnsteig U7 Gleis 1,52.511500000000,13.305095000000,0,de:11000:900024201,0,,5555 U Bismarckstr. (Berlin),3
de:11000:900024201::4,,U Bismarckstr. (Berlin),U Bahnsteig U7 Gleis 2,52.511515000000,13.305258000000,0,de:11000:900024201,0,,5555 U Bismarckstr. (Berlin),3
de:11000:900024202::1,,U Wilmersdorfer Str. (Berlin),U Bahnsteig Gleis 1,52.506353000000,13.306655000000,0,de:11000:900024202,0,,5555 U Wilmersdorfer Str. (Berlin),49
de:11000:900024202::2,,U Wilmersdorfer Str. (Berlin),U Bahnsteig Gleis 2,52.506367000000,13.306833000000,0,de:11000:900024202,0,,5555 U Wilmersdorfer Str. (Berlin),49
de:11000:900023302::1,,U Adenauerplatz (Berlin),U Bahnsteig Gleis 1,52.499998000000,13.307175000000,0,de:11000:900023302,0,,5555 U Adenauerplatz (Berlin),3
de:11000:900023302::2,,U Adenauerplatz (Berlin),U Bahnsteig Gleis 2,52.499990000000,13.307401000000,0,de:11000:900023302,0,,5555 U Adenauerplatz (Berlin),3
de:11000:900041201::1,,U Konstanzer Str. (Berlin),U Bahnsteig Gleis 1,52.494524000000,13.309008000000,0,de:11000:900041201,0,,5555 U Konstanzer Str. (Berlin),3
de:11000:900041201::2,,U Konstanzer Str. (Berlin),U Bahnsteig Gleis 2,52.494580000000,13.309153000000,0,de:11000:900041201,0,,5555 U Konstanzer Str. (Berlin),3
de:11000:900041101::3,,U Fehrbelliner Platz (Berlin),U Bahnsteig Gleis 1,52.490391000000,13.314185000000,0,de:11000:900041101,0,,5555 U Fehrbelliner Platz (Berlin),31
de:11000:900041101::4,,U Fehrbelliner Platz (Berlin),U Bahnsteig Gleis 2,52.490489000000,13.314375000000,0,de:11000:900041101,0,,5555 U Fehrbelliner Platz (Berlin),31
de:11000:900041102::1,,U Blissestr. (Berlin),U Bahnsteig Gleis 1,52.486328000000,13.321920000000,0,de:11000:900041102,0,,5555 U Blissestr. (Berlin),22
de:11000:900041102::2,,U Blissestr. (Berlin),U Bahnsteig Gleis 2,52.486454000000,13.321942000000,0,de:11000:900041102,0,,5555 U Blissestr. (Berlin),22
de:11000:900044201::1,,U Berliner Str. (Berlin),U Bahnsteig Gleis 1 (unten),52.487265000000,13.330998000000,0,de:11000:900044201,0,,5555 U Berliner Str. (Berlin),27
de:11000:900044201::2,,U Berliner Str. (Berlin),U Bahnsteig Gleis 2 (unten),52.487349000000,13.330967000000,0,de:11000:900044201,0,,5555 U Berliner Str. (Berlin),27
de:11000:900055102::3,,U Bayerischer Platz (Berlin),U Bahnsteig Gleis 1,52.488621000000,13.341516000000,0,de:11000:900055102,0,,5555 U Bayerischer Platz (Berlin),22
de:11000:900055102::4,,U Bayerischer Platz (Berlin),U Bahnsteig Gleis 2,52.488738000000,13.341488000000,0,de:11000:900055102,0,,5555 U Bayerischer Platz (Berlin),22
de:11000:900054103::1,,U Eisenacher Str. (Berlin),U Bahnsteig Gleis 1,52.489521000000,13.350362000000,0,de:11000:900054103,1,,5555 U Eisenacher Str. (Berlin),3
de:11000:900054103::2,,U Eisenacher Str. (Berlin),U Bahnsteig Gleis 2,52.489620000000,13.350333000000,0,de:11000:900054103,1,,5555 U Eisenacher Str. (Berlin),3
de:11000:900054102::1,,U Kleistpark (Berlin),U Bahnsteig Gleis 1,52.490297000000,13.360266000000,0,de:11000:900054102,0,,5555 U Kleistpark (Berlin),3
de:11000:900054102::2,,U Kleistpark (Berlin),U Bahnsteig Gleis 2,52.490431000000,13.360284000000,0,de:11000:900054102,0,,5555 U Kleistpark (Berlin),3
de:11000:900057103::1,,S+U Yorckstr. (Berlin),U Bahnsteig Gleis 1,52.492922000000,13.370841000000,0,de:11000:900058103,0,,5555 S+U Yorckstr. (Berlin),3
de:11000:900057103::2,,S+U Yorckstr. (Berlin),U Bahnsteig Gleis 2,52.493057000000,13.370822000000,0,de:11000:900058103,0,,5555 S+U Yorckstr. (Berlin),3
de:11000:900017104::3,,U Möckernbrücke (Berlin),U Bahnsteig Gleis 1,52.498643000000,13.383020000000,0,de:11000:900017104,0,,5555 U Möckernbrücke (Berlin),34
de:11000:900017104::4,,U Möckernbrücke (Berlin),U Bahnsteig Gleis 2,52.498769000000,13.383015000000,0,de:11000:900017104,0,,5555 U Möckernbrücke (Berlin),34
de:11000:900017101::3,,U Mehringdamm (Berlin),U Bahnsteig Gleis 3,52.494594000000,13.388959000000,0,de:11000:900017101,0,,5555 U Mehringdamm (Berlin),3
de:11000:900017101::4,,U Mehringdamm (Berlin),U Bahnsteig Gleis 4,52.494575000000,13.389014000000,0,de:11000:900017101,0,,5555 U Mehringdamm (Berlin),3
de:11000:900016101::1,,U Gneisenaustr. (Berlin),U Bahnsteig Gleis 1,52.491268000000,13.395700000000,0,de:11000:900016101,0,,5555 U Gneisenaustr. (Berlin),2
de:11000:900016101::2,,U Gneisenaustr. (Berlin),U Bahnsteig Gleis 2,52.491355000000,13.395745000000,0,de:11000:900016101,0,,5555 U Gneisenaustr. (Berlin),2
de:11000:900016202::1,,U Südstern (Berlin),U Bahnsteig Gleis 1,52.489216000000,13.407672000000,0,de:11000:900016202,0,,5555 U Südstern (Berlin),2
de:11000:900016202::2,,U Südstern (Berlin),U Bahnsteig Gleis 2,52.489298000000,13.407737000000,0,de:11000:900016202,0,,5555 U Südstern (Berlin),2
de:11000:900078101::1,,U Hermannplatz (Berlin),U-Bahnsteig Gleis 1,52.486364000000,13.424162000000,0,de:11000:900078101,0,,5555 U Hermannplatz (Berlin),34
de:11000:900078101::2,,U Hermannplatz (Berlin),U-Bahnsteig Gleis 2,52.486446000000,13.424239000000,0,de:11000:900078101,0,,5555 U Hermannplatz (Berlin),34
de:11000:900078102::1,,U Rathaus Neukölln (Berlin),U Bahnsteig Gleis 1,52.481765000000,13.433958000000,0,de:11000:900078102,0,,5555 U Rathaus Neukölln (Berlin),2
de:11000:900078102::2,,U Rathaus Neukölln (Berlin),U Bahnsteig Gleis 2,52.481805000000,13.434038000000,0,de:11000:900078102,0,,5555 U Rathaus Neukölln (Berlin),2
de:11000:900078103::1,,U Karl-Marx-Str. (Berlin),U Bahnsteig Gleis 1,52.476514000000,13.439167000000,0,de:11000:900078103,0,,5555 U Karl-Marx-Str. (Berlin),2
de:11000:900078103::2,,U Karl-Marx-Str. (Berlin),U Bahnsteig Gleis 2,52.476530000000,13.439269000000,0,de:11000:900078103,0,,5555 U Karl-Marx-Str. (Berlin),2
de:11000:900078201::1,,S+U Neukölln (Berlin),U-Bahnsteig Gleis 1,52.468614000000,13.441670000000,0,de:11000:900078201,0,,5555 S+U Neukölln (Berlin),37
de:11000:900078201::2,,S+U Neukölln (Berlin),U-Bahnsteig Gleis 2,52.468637000000,13.441938000000,0,de:11000:900078201,0,,5555 S+U Neukölln (Berlin),37
de:11000:900080202::1,,U Grenzallee (Berlin),U Bahnsteig Gleis 1,52.462871000000,13.444733000000,0,de:11000:900080202,0,,5656 U Grenzallee (Berlin),3
de:11000:900080202::2,,U Grenzallee (Berlin),U Bahnsteig Gleis 2,52.462894000000,13.444839000000,0,de:11000:900080202,0,,5656 U Grenzallee (Berlin),3
de:11000:900080201::1,,U Blaschkoallee (Berlin),Bahnsteig U7 Gleis 1,52.452075000000,13.449140000000,0,de:11000:900080201,0,,5656 U Blaschkoallee (Berlin),2
de:11000:900080201::2,,U Blaschkoallee (Berlin),Bahnsteig U7 Gleis 2,52.452086000000,13.449251000000,0,de:11000:900080201,0,,5656 U Blaschkoallee (Berlin),2
de:11000:900080401::1,,U Parchimer Allee (Berlin),U Bahnsteig Gleis 1,52.444778000000,13.449536000000,0,de:11000:900080401,0,,5656 U Parchimer Allee (Berlin),2
de:11000:900080401::2,,U Parchimer Allee (Berlin),U Bahnsteig Gleis 2,52.444758000000,13.449646000000,0,de:11000:900080401,0,,5656 U Parchimer Allee (Berlin),2
de:11000:900080402::1,,U Britz-Süd (Berlin),U Bahnsteig Gleis 1,52.437777000000,13.448097000000,0,de:11000:900080402,0,,5656 U Britz-Süd (Berlin),2
de:11000:900080402::2,,U Britz-Süd (Berlin),U Bahnsteig Gleis 2,52.437805000000,13.448281000000,0,de:11000:900080402,0,,5656 U Britz-Süd (Berlin),2
de:11000:900082202::1,,U Johannisthaler Chaussee (Berlin),U Bahnsteig Gleis 1,52.429280000000,13.453239000000,0,de:11000:900082202,0,,5656 U Johannisthaler Chaussee (Berlin),2
de:11000:900082202::2,,U Johannisthaler Chaussee (Berlin),U Bahnsteig Gleis 2,52.429378000000,13.453482000000,0,de:11000:900082202,0,,5656 U Johannisthaler Chaussee (Berlin),2
de:11000:900082201::1,,U Lipschitzallee (Berlin),U Bahnsteig Gleis 1,52.424611000000,13.462666000000,0,de:11000:900082201,0,,5656 U Lipschitzallee (Berlin),2
de:11000:900082201::2,,U Lipschitzallee (Berlin),U Bahnsteig Gleis 2,52.424671000000,13.462725000000,0,de:11000:900082201,0,,5656 U Lipschitzallee (Berlin),2
de:11000:900083102::1,,U Wutzkyallee (Berlin),U Bahnsteig Gleis 1,52.423277000000,13.474655000000,0,de:11000:900083102,0,,5656 U Wutzkyallee (Berlin),2
de:11000:900083102::2,,U Wutzkyallee (Berlin),U Bahnsteig Gleis 2,52.423383000000,13.474655000000,0,de:11000:900083102,0,,5656 U Wutzkyallee (Berlin),2
de:11000:900083101::1,,U Zwickauer Damm (Berlin),U Bahnsteig Gleis 1,52.423252000000,13.483727000000,0,de:11000:900083101,0,,5656 U Zwickauer Damm (Berlin),2
de:11000:900083101::2,,U Zwickauer Damm (Berlin),U Bahnsteig Gleis 2,52.423333000000,13.483774000000,0,de:11000:900083101,0,,5656 U Zwickauer Damm (Berlin),2
de:11000:900083201::1,,U Rudow (Berlin),U Bahnsteig Gleis 1,52.416279000000,13.495085000000,0,de:11000:900083201,0,,5656 U Rudow (Berlin),3
de:11000:900083201::2,,U Rudow (Berlin),U Bahnsteig Gleis 2,52.416332000000,13.495157000000,0,de:11000:900083201,0,,5656 U Rudow (Berlin),3
de:11000:900096101::1,,S+U Wittenau (Berlin),U-Bahnsteig Gleis 1,52.595694000000,13.334358000000,0,de:11000:900096101,0,,5656 S+U Wittenau (Berlin),3
de:11000:900096101::2,,S+U Wittenau (Berlin),U-Bahnsteig Gleis 2,52.595540000000,13.334374000000,0,de:11000:900096101,0,,5656 S+U Wittenau (Berlin),3
de:11000:900096410::1,,U Rathaus Reinickendorf (Berlin),U Bahnsteig Gleis 1,52.588381000000,13.325626000000,0,de:11000:900096410,0,,5656 U Rathaus Reinickendorf (Berlin),75
de:11000:900096410::2,,U Rathaus Reinickendorf (Berlin),U Bahnsteig Gleis 2,52.588417000000,13.325862000000,0,de:11000:900096410,0,,5656 U Rathaus Reinickendorf (Berlin),75
de:11000:900096458::1,,S+U Karl-Bonhoeffer-Nervenklinik (Berlin),U Bahnsteig Gleis 1,52.578880000000,13.333294000000,0,de:11000:900096458,0,1,5656 S+U Karl-Bonhoeffer-Nervenklinik (Berlin),22
de:11000:900096458::2,,S+U Karl-Bonhoeffer-Nervenklinik (Berlin),U Bahnsteig Gleis 2,52.578907000000,13.333493000000,0,de:11000:900096458,0,,5656 S+U Karl-Bonhoeffer-Nervenklinik (Berlin),22
de:11000:900086160::1,,U Lindauer Allee (Berlin),U Bahnsteig Gleis 1,52.575354000000,13.339110000000,0,de:11000:900086160,0,,5656 U Lindauer Allee (Berlin),3
de:11000:900086160::2,,U Lindauer Allee (Berlin),U Bahnsteig Gleis 2,52.575384000000,13.339115000000,0,de:11000:900086160,0,,5656 U Lindauer Allee (Berlin),3
de:11000:900085104::1,,U Paracelsus-Bad (Berlin),U Bahnsteig Gleis 1,52.574106000000,13.349019000000,0,de:11000:900085104,0,,5656 U Paracelsus-Bad (Berlin),3
de:11000:900085104::2,,U Paracelsus-Bad (Berlin),U Bahnsteig Gleis 2,52.574198000000,13.349052000000,0,de:11000:900085104,0,,5656 U Paracelsus-Bad (Berlin),3
de:11000:900085203::1,,U Residenzstr. (Berlin),U Bahnsteig Gleis 1,52.571106000000,13.360435000000,0,de:11000:900085203,0,,5656 U Residenzstr. (Berlin),3
de:11000:900085203::2,,U Residenzstr. (Berlin),U Bahnsteig Gleis 2,52.571139000000,13.360599000000,0,de:11000:900085203,0,,5656 U Residenzstr. (Berlin),3
de:11000:900085202::1,,U Franz-Neumann-Platz (Berlin),U Bahnsteig Gleis 1,52.564603000000,13.363811000000,0,de:11000:900085202,0,,5656 U Franz-Neumann-Platz (Berlin),3
de:11000:900085202::2,,U Franz-Neumann-Platz (Berlin),U Bahnsteig Gleis 2,52.564629000000,13.363965000000,0,de:11000:900085202,0,,5656 U Franz-Neumann-Platz (Berlin),3
de:11000:900009202::1,,U Osloer Str. (Berlin),U Bahnsteig Gleis 1 (unten),52.557098000000,13.373196000000,0,de:11000:900009202,0,,5656 U Osloer Str. (Berlin),41
de:11000:900009202::2,,U Osloer Str. (Berlin),U Bahnsteig Gleis 2 (unten),52.557175000000,13.373355000000,0,de:11000:900009202,0,,5656 U Osloer Str. (Berlin),41
de:11000:900009203::1,,U Pankstr. (Berlin),U Bahnsteig Gleis 1,52.552240000000,13.381422000000,0,de:11000:900009203,0,,5656 U Pankstr. (Berlin),3
de:11000:900009203::2,,U Pankstr. (Berlin),U Bahnsteig Gleis 2,52.552294000000,13.381482000000,0,de:11000:900009203,0,,5656 U Pankstr. (Berlin),3
de:11000:900007102::1,,S+U Gesundbrunnen Bhf (Berlin),U-Bahnsteig Gleis 1,52.548736000000,13.388263000000,0,de:11000:900007102,0,,5555 S+U Gesundbrunnen Bhf (Berlin),31
de:11000:900007102::2,,S+U Gesundbrunnen Bhf (Berlin),U-Bahnsteig Gleis 2,52.548802000000,13.388396000000,0,de:11000:900007102,0,,5555 S+U Gesundbrunnen Bhf (Berlin),31
de:11000:900007103::1,,U Voltastr. (Berlin),U Bahnsteig Gleis 1,52.542101000000,13.392932000000,0,de:11000:900007103,0,,5555 U Voltastr. (Berlin),2
de:11000:900007103::2,,U Voltastr. (Berlin),U Bahnsteig Gleis 2,52.542150000000,13.393114000000,0,de:11000:900007103,0,,5555 U Voltastr. (Berlin),2
de:11000:900007110::1,,U Bernauer Str. (Berlin),U Bahnsteig Gleis 1,52.537276000000,13.396665000000,0,de:11000:900007110,0,,5555 U Bernauer Str. (Berlin),2
de:11000:900007110::2,,U Bernauer Str. (Berlin),U Bahnsteig Gleis 2,52.537319000000,13.396828000000,0,de:11000:900007110,0,,5555 U Bernauer Str. (Berlin),2
de:11000:900100023::1,,U Rosenthaler Platz (Berlin),U Bahnsteig Gleis 1,52.530380000000,13.400626000000,0,de:11000:900100023,0,,5555 U Rosenthaler Platz (Berlin),22
de:11000:900100023::2,,U Rosenthaler Platz (Berlin),U Bahnsteig Gleis 2,52.530428000000,13.400769000000,0,de:11000:900100023,0,,5555 U Rosenthaler Platz (Berlin),22
de:11000:900100051::1,,U Weinmeisterstr. (Berlin),U Bahnsteig Gleis 1,52.525435000000,13.404988000000,0,de:11000:900100051,0,,5555 U Weinmeisterstr. (Berlin),3
de:11000:900100051::2,,U Weinmeisterstr. (Berlin),U Bahnsteig Gleis 2,52.525501000000,13.405070000000,0,de:11000:900100051,0,,5555 U Weinmeisterstr. (Berlin),3
de:11000:900100003::5,,S+U Alexanderplatz Bhf (Berlin),U-Bahn Gleis 1 (U8),52.520950000000,13.412565000000,0,de:11000:900100003,0,,5555 S+U Alexanderplatz Bhf (Berlin),13
de:11000:900100003::6,,S+U Alexanderplatz Bhf (Berlin),U-Bahn Gleis 2 (U8),52.521048000000,13.412764000000,0,de:11000:900100003,0,,5555 S+U Alexanderplatz Bhf (Berlin),13
de:11000:900100004::1,,S+U Jannowitzbrücke (Berlin),U Bahnsteig Gleis 1,52.515585000000,13.418139000000,0,de:11000:900100004,0,,5555 S+U Jannowitzbrücke (Berlin),81
de:11000:900100004::2,,S+U Jannowitzbrücke (Berlin),U Bahnsteig Gleis 2,52.515577000000,13.418239000000,0,de:11000:900100004,0,,5555 S+U Jannowitzbrücke (Berlin),81
de:11000:900100008::1,,U Heinrich-Heine-Str. (Berlin),U Bahnsteig Gleis 1,52.510120000000,13.415704000000,0,de:11000:900100008,0,,5555 U Heinrich-Heine-Str. (Berlin),22
de:11000:900100008::2,,U Heinrich-Heine-Str. (Berlin),U Bahnsteig Gleis 2,52.510077000000,13.415832000000,0,de:11000:900100008,0,,5555 U Heinrich-Heine-Str. (Berlin),22
de:11000:900013101::1,,U Moritzplatz (Berlin),U Bahnsteig Gleis 1,52.503676000000,13.410615000000,0,de:11000:900013101,0,,5555 U Moritzplatz (Berlin),49
de:11000:900013101::2,,U Moritzplatz (Berlin),U Bahnsteig Gleis 2,52.503618000000,13.410788000000,0,de:11000:900013101,0,,5555 U Moritzplatz (Berlin),49
de:11000:900013102::3,,U Kottbusser Tor (Berlin),U Bahnsteig U8 Gleis 1,52.498849000000,13.417900000000,0,de:11000:900013102,0,,5555 U Kottbusser Tor (Berlin),71
de:11000:900013102::4,,U Kottbusser Tor (Berlin),U Bahnsteig U8 Gleis 2,52.498959000000,13.418101000000,0,de:11000:900013102,0,,5555 U Kottbusser Tor (Berlin),71
de:11000:900016201::1,,U Schönleinstr. (Berlin),U Bahnsteig Gleis 1,52.493448000000,13.421725000000,0,de:11000:900016201,0,,5555 U Schönleinstr. (Berlin),3
de:11000:900016201::2,,U Schönleinstr. (Berlin),U Bahnsteig Gleis 2,52.493480000000,13.421844000000,0,de:11000:900016201,0,,5555 U Schönleinstr. (Berlin),3
de:11000:900078101::3,,U Hermannplatz (Berlin),U-Bahnsteig oben Gleis 1,52.486466000000,13.424303000000,0,de:11000:900078101,0,,5555 U Hermannplatz (Berlin),35
de:11000:900078101::4,,U Hermannplatz (Berlin),U-Bahnsteig oben Gleis 2,52.486413000000,13.424599000000,0,de:11000:900078101,0,,5555 U Hermannplatz (Berlin),35
de:11000:900079202::1,,U Boddinstr. (Berlin),U Bahnsteig Gleis 1,52.480162000000,13.425207000000,0,de:11000:900079202,0,,5555 U Boddinstr. (Berlin),2
de:11000:900079202::2,,U Boddinstr. (Berlin),U Bahnsteig Gleis 2,52.480178000000,13.425341000000,0,de:11000:900079202,0,,5555 U Boddinstr. (Berlin),2
de:11000:900079201::1,,U Leinestr. (Berlin),U Bahnsteig Gleis 1,52.473426000000,13.428058000000,0,de:11000:900079201,0,,5555 U Leinestr. (Berlin),3
de:11000:900079201::2,,U Leinestr. (Berlin),U Bahnsteig Gleis 2,52.473448000000,13.428184000000,0,de:11000:900079201,0,,5555 U Leinestr. (Berlin),3
de:11000:900079221::1,,S+U Hermannstr. (Berlin),U Bahnsteig Gleis 1,52.467622000000,13.431164000000,0,de:11000:900079221,0,,5555 S+U Hermannstr. (Berlin),81
de:11000:900079221::2,,S+U Hermannstr. (Berlin),U Bahnsteig Gleis 2,52.467647000000,13.431289000000,0,de:11000:900079221,0,,5555 S+U Hermannstr. (Berlin),81
de:11000:900009202::3,,U Osloer Str. (Berlin),U Bahnsteig Gleis 1 (oben),52.557207000000,13.373128000000,0,de:11000:900009202,0,,5656 U Osloer Str. (Berlin),42
de:11000:900009202::4,,U Osloer Str. (Berlin),U Bahnsteig Gleis 2 (oben),52.557148000000,13.373341000000,0,de:11000:900009202,0,,5656 U Osloer Str. (Berlin),42
de:11000:900009201::1,,U Nauener Platz (Berlin),U Bahnsteig Gleis 1,52.551666000000,13.367384000000,0,de:11000:900009201,0,,5656 U Nauener Platz (Berlin),3
de:11000:900009201::2,,U Nauener Platz (Berlin),U Bahnsteig Gleis 2,52.551585000000,13.367543000000,0,de:11000:900009201,0,,5656 U Nauener Platz (Berlin),3
de:11000:900009102::3,,U Leopoldplatz (Berlin),U Bahnsteig Gleis 1 (U9),52.546448000000,13.359059000000,0,de:11000:900009102,0,,5656 U Leopoldplatz (Berlin),22
de:11000:900009102::4,,U Leopoldplatz (Berlin),U Bahnsteig Gleis 2 (U9),52.546349000000,13.359230000000,0,de:11000:900009102,0,,5656 U Leopoldplatz (Berlin),22
de:11000:900009101::1,,U Amrumer Str. (Berlin),U Bahnsteig Gleis 1,52.542370000000,13.350099000000,0,de:11000:900009101,0,,5656 U Amrumer Str. (Berlin),3
de:11000:900009101::2,,U Amrumer Str. (Berlin),U Bahnsteig Gleis 2,52.542294000000,13.350191000000,0,de:11000:900009101,0,,5656 U Amrumer Str. (Berlin),3
de:11000:900001201::1,,S+U Westhafen (Berlin),Bahnsteig 1 U9,52.536766000000,13.342507000000,0,de:11000:900001201,0,,5555 S+U Westhafen (Berlin),87
de:11000:900001201::2,,S+U Westhafen (Berlin),Bahnsteig 2 U9,52.536744000000,13.342635000000,0,de:11000:900001201,0,,5555 S+U Westhafen (Berlin),87
de:11000:900002201::1,,U Birkenstr. (Berlin),U Bahnsteig Gleis 1,52.532192000000,13.341235000000,0,de:11000:900002201,0,,5555 U Birkenstr. (Berlin),3
de:11000:900002201::2,,U Birkenstr. (Berlin),U Bahnsteig Gleis 2,52.532191000000,13.341410000000,0,de:11000:900002201,0,,5555 U Birkenstr. (Berlin),3
de:11000:900003104::1,,U Turmstr. (Berlin),U Bahnsteig Gleis 1,52.526136000000,13.341178000000,0,de:11000:900003104,0,,5555 U Turmstr. (Berlin),22
de:11000:900003104::2,,U Turmstr. (Berlin),U Bahnsteig Gleis 2,52.526128000000,13.341406000000,0,de:11000:900003104,0,,5555 U Turmstr. (Berlin),22
de:11000:900003101::1,,U Hansaplatz (Berlin),U Bahnsteig Gleis 1,52.517873000000,13.341988000000,0,de:11000:900003101,0,,5555 U Hansaplatz (Berlin),2
de:11000:900003101::2,,U Hansaplatz (Berlin),U Bahnsteig Gleis 2,52.517882000000,13.342161000000,0,de:11000:900003101,0,,5555 U Hansaplatz (Berlin),2
de:11000:900023201::3,,S+U Zoologischer Garten Bhf (Berlin),U Bahnsteig Gleis 1 (U9),52.506825000000,13.332797000000,0,de:11000:900023201,0,,5555 S+U Zoologischer Garten Bhf (Berlin),6
de:11000:900023201::4,,S+U Zoologischer Garten Bhf (Berlin),U Bahnsteig Gleis 2 (U9),52.506776000000,13.332991000000,0,de:11000:900023201,0,,5555 S+U Zoologischer Garten Bhf (Berlin),6
de:11000:900023203::3,,U Kurfürstendamm (Berlin),U Bahnsteig Gleis 1,52.503123000000,13.331243000000,0,de:11000:900023203,0,,5555 U Kurfürstendamm (Berlin),22
de:11000:900023203::4,,U Kurfürstendamm (Berlin),U Bahnsteig Gleis 2,52.503114000000,13.331398000000,0,de:11000:900023203,0,,5555 U Kurfürstendamm (Berlin),22
de:11000:900042101::3,,U Spichernstr. (Berlin),U Bahnsteig Gleis 1 (unten),52.497354000000,13.330719000000,0,de:11000:900042101,0,,5555 U Spichernstr. (Berlin),3
de:11000:900042101::4,,U Spichernstr. (Berlin),U Bahnsteig Gleis 2 (unten),52.497354000000,13.330868000000,0,de:11000:900042101,0,,5555 U Spichernstr. (Berlin),3
de:11000:900043201::1,,U Güntzelstr. (Berlin),U Bahnsteig Gleis 1,52.492049000000,13.330903000000,0,de:11000:900043201,0,,5555 U Güntzelstr. (Berlin),3
de:11000:900043201::2,,U Güntzelstr. (Berlin),U Bahnsteig Gleis 2,52.492048000000,13.331101000000,0,de:11000:900043201,0,,5555 U Güntzelstr. (Berlin),3
de:11000:900044201::3,,U Berliner Str. (Berlin),U Bahnsteig Gleis 1 (oben),52.487295000000,13.330798000000,0,de:11000:900044201,0,,5555 U Berliner Str. (Berlin),28
de:11000:900044201::4,,U Berliner Str. (Berlin),U Bahnsteig Gleis 2 (oben),52.487326000000,13.331167000000,0,de:11000:900044201,0,,5555 U Berliner Str. (Berlin),28
de:11000:900044202::1,,S+U Bundesplatz (Berlin),U-Bahnsteig Gleis 1,52.477904000000,13.328481000000,0,de:11000:900044202,0,,5555 S+U Bundesplatz (Berlin),32
de:11000:900044202::2,,S+U Bundesplatz (Berlin),U-Bahnsteig Gleis 2,52.477908000000,13.328613000000,0,de:11000:900044202,0,,5555 S+U Bundesplatz (Berlin),32
de:11000:900061102::1,,U Friedrich-Wilhelm-Platz (Berlin),U Bahnsteig Gleis 1,52.472131000000,13.328639000000,0,de:11000:900061102,0,,5656 U Friedrich-Wilhelm-Platz (Berlin),3
de:11000:900061102::2,,U Friedrich-Wilhelm-Platz (Berlin),U Bahnsteig Gleis 2,52.472114000000,13.328848000000,0,de:11000:900061102,0,,5656 U Friedrich-Wilhelm-Platz (Berlin),3
de:11000:900061101::1,,U Walther-Schreiber-Platz (Berlin),U Bahnsteig Gleis 1,52.466103000000,13.328178000000,0,de:11000:900061101,0,,5656 U Walther-Schreiber-Platz (Berlin),3
de:11000:900061101::2,,U Walther-Schreiber-Platz (Berlin),U Bahnsteig Gleis 2,52.466100000000,13.328345000000,0,de:11000:900061101,0,,5656 U Walther-Schreiber-Platz (Berlin),3
de:11000:900062203::1,,U Schloßstr. (Berlin),U Bahnsteig Gleis 3,52.460629000000,13.324477000000,0,de:11000:900062203,0,,5656 U Schloßstr. (Berlin),22
de:11000:900062203::2,,U Schloßstr. (Berlin),U Bahnsteig Gleis 4,52.460605000000,13.324455000000,0,de:11000:900062203,0,,5656 U Schloßstr. (Berlin),3
de:11000:900062202::1,,S+U Rathaus Steglitz (Berlin),U-Bahnsteig Gleis 1,52.456166000000,13.320478000000,0,de:11000:900062202,0,,5656 S+U Rathaus Steglitz (Berlin),22
de:11000:900062202::2,,S+U Rathaus Steglitz (Berlin),U-Bahnsteig Gleis 2,52.456134000000,13.320686000000,0,,0,,5656 S+U Rathaus Steglitz (Berlin),4
de:11000:900182002:1:50,,S Friedrichshagen (Berlin),S-Bahnsteig Gleis 4,52.457423000000,13.623211000000,0,de:11000:900182002,0,,5656 S Friedrichshagen (Berlin),5
de:11000:900120003:3:54,,S Ostkreuz Bhf (Berlin),S-Bahnsteig Gleis 5,52.503348000000,13.468748000000,0,de:11000:900120003,0,5,5555 S Ostkreuz Bhf (Berlin),4
de:11000:900120004:1:51,,S+U Warschauer Str. (Berlin),Bahnsteig Gleis 2,52.506228000000,13.450720000000,0,de:11000:900120004,0,2,5555 S+U Warschauer Str. (Berlin),2
de:11000:900120004:1:50,,S+U Warschauer Str. (Berlin),Bahnsteig Gleis 1,52.506121000000,13.450664000000,0,de:11000:900120004,0,1,5555 S+U Warschauer Str. (Berlin),2
de:11000:900088202::5,,U Borsigwerke (Berlin),Bushalt Berliner Straße ht. Am Borsigturm,52.582372000000,13.289858000000,0,,0,,5656 U Borsigwerke (Berlin),4
de:11000:900100045::6,,U Rotes Rathaus (Berlin),U Bahnsteig Gleis 1,52.518802000000,13.407888000000,0,de:11000:900100045,0,,5555 U Rotes Rathaus (Berlin),98
de:11000:900100045::7,,U Rotes Rathaus (Berlin),U Bahnsteig Gleis 2,52.518762000000,13.407935000000,0,de:11000:900100045,0,,5555 U Rotes Rathaus (Berlin),98
de:11000:900100537::3,,U Museumsinsel (Berlin),U Bahnsteig Gleis 1,52.517402000000,13.398250000000,0,de:11000:900100537,0,,5555 U Museumsinsel (Berlin),55
de:11000:900100537::4,,U Museumsinsel (Berlin),U Bahnsteig Gleis 2,52.517267000000,13.398218000000,0,de:11000:900100537,0,,5555 U Museumsinsel (Berlin),55
de:11000:900100513::5,,U Unter den Linden (Berlin),U Bahnsteig U5 Gleis 1,52.517040000000,13.389059000000,0,de:11000:900100513,0,,5555 U Unter den Linden (Berlin),55
de:11000:900100513::6,,U Unter den Linden (Berlin),U Bahnsteig U5 Gleis 2,52.516920000000,13.389081000000,0,de:11000:900100513,0,,5555 U Unter den Linden (Berlin),55
de:11000:900100025::5,,S+U Brandenburger Tor (Berlin),U Bahnsteig Gleis 2,52.516529000000,13.381004000000,0,de:11000:900100025,0,,5555 S+U Brandenburger Tor (Berlin),130
de:11000:900003254::5,,U Bundestag (Berlin),U Bahnsteig Gleis 2,52.520109000000,13.372842000000,0,de:11000:900003254,0,,5555 U Bundestag (Berlin),124
de:11000:900003201::10,,S+U Berlin Hauptbahnhof,U Bahnsteig Gleis 2,52.525225000000,13.370030000000,0,de:11000:900003201,0,,5555 S+U Berlin Hauptbahnhof,3
de:12061:900260080:1:50,,S Waßmannsdorf,S-Bahnsteig Gleis 1,52.368477000000,13.463492000000,0,de:12061:900260080,0,1,5856 S Waßmannsdorf,5
de:12061:900260080:1:51,,S Waßmannsdorf,S-Bahnsteig Gleis 2,52.368714000000,13.463746000000,0,de:12061:900260080,0,2,5856 S Waßmannsdorf,5
de:12061:900260009:3:55,,Flughafen BER,S-Bahnsteig Gleis 5,52.364226000000,13.508213000000,0,de:12061:900260009,0,,5957 Flughafen BER,3
de:12061:900260009:3:56,,Flughafen BER,S-Bahnsteig Gleis 6,52.364331000000,13.508164000000,0,de:12061:900260009,0,,5957 Flughafen BER,3
de:11000:900100513::7,,U Unter den Linden (Berlin),U Bahnsteig U6 Gleis 1,52.516662000000,13.388825000000,0,de:11000:900100513,0,,5555 U Unter den Linden (Berlin),197
de:11000:900100513::8,,U Unter den Linden (Berlin),U Bahnsteig U6 Gleis 2,52.516665000000,13.388887000000,0,de:11000:900100513,0,,5555 U Unter den Linden (Berlin),197
de:11000:900175001::12,,S+U Wuhletal (Berlin),Bushalt Altentreptower Straße ht. Ausf. Bushafen,52.513110000000,13.576842000000,0,,0,,5656 S+U Wuhletal (Berlin),4
de:12060:900350868::1,,"Bernau, Ladestr.",Bushalt Ladestr. hinter Bahnhofspassage,52.676258000000,13.594796000000,0,,0,,"5158 Bernau, Ladestr.",4
de:12065:900203523::2,,"Birkenwerder, Kirche",Bushalt Hauptstraße gegenüber Kirche,52.690781000000,13.277716000000,0,,0,,"5154 Birkenwerder, Kirche",4
070101051445,,U Leopoldplatz (Berlin),,52.548268000000,13.360108000000,0,,1,,5656 U Leopoldplatz (Berlin),
de:11000:900089301::11,,U Alt-Tegel (Berlin),Ersatzhalt Berliner Straße ht. Alt-Tegel,52.589604000000,13.283448000000,0,,0,,5656 U Alt-Tegel (Berlin),4
de:11000:900175004::7,,U Kaulsdorf-Nord (Berlin),Bushalt Hellersdorfer Str. ht. Ludwigsluster Str.,52.521247000000,13.587930000000,0,,0,,5656 U Kaulsdorf-Nord (Berlin),4
de:12065:900203526::2,,"Borgsdorf, Berliner Chaussee",Ersatzhalt Berliner Chaussee vor Karl-Marx-Straße,52.705570000000,13.269360000000,0,,0,,"5154 Borgsdorf, Berliner Chaussee",4
de:12065:900200042::1,,"Hohen Neuendorf, Berliner Str./Schönfließer Str.",Ersatzhalt Berliner Straße hinter Schönfließer Straße,52.670017000000,13.280534000000,0,,0,,"5154 Hohen Neuendorf, Berliner Str./Schönfließer Str.",4
de:12065:900203415::2,,"Birkenwerder, Hauptstr.",Ersatzhalt Hauptstraße nach Gustaf-Freytag-Straße,52.687970000000,13.282890000000,0,,0,,"5154 Birkenwerder, Hauptstr.",4
de:12065:900203527::1,,"Bergfelde, Fichtestr.",Bushalt Fichtestr. vor Ahornallee,52.666662000000,13.316825000000,0,,0,,"5154 Bergfelde, Fichtestr.",4
